{
"type": "FeatureCollection",
"name": "Wisconsin_Hospitals",
"crs": { "type": "name", "properties": { "name": "urn:ogc:def:crs:OGC:1.3:CRS84" } },
"features": [
{ "type": "Feature", "properties": { "OBJECTID": 131, "FACILITY_INTERNAL_ID": 1987, "ADDRESS": "2323 N Lake Dr", "ADDRESS_2": null, "CITY": "Milwaukee", "STATE": "WI", "ZIP": 53211, "ZIP_4": 4508, "LAT": 43.061537, "LON": -87.879873, "STATE_FIPS": 55, "COUNTY": "Milwaukee", "COUNTY_FIPS": 55079, "TYPE_DESC": "HOSPITAL", "SUB_TYPE_DESC": "SHORT TERM", "WI_LICENSE_NUM": 53, "ASPEN_FACILITY_ID": "HSPLACU113", "MEDICARE_ID": "520051", "ALIS_NAME": "ASCENSION COLUMBIA ST MARY'S HOSPITAL MILWAUKEE", "WITRAC_NAME": "Ascension Columbia St. Mary's Milwaukee ", "NAME": "Ascension Columbia St. Mary's Hospital Milwaukee", "TYPE_CODE": "1", "FACILITY_TYPE_CODE": "11", "URL": "https://healthcare.ascension.org/Locations/Wisconsin/WIMIL/Milwaukee-Ascension-Columbia-St-Marys-Hospital-Milwaukee/" }, "geometry": { "type": "Point", "coordinates": [ -87.879873, 43.061537 ] } },
{ "type": "Feature", "properties": { "OBJECTID": 132, "FACILITY_INTERNAL_ID": 2027, "ADDRESS": "507 S Main St", "ADDRESS_2": null, "CITY": "Viroqua", "STATE": "WI", "ZIP": 54665, "ZIP_4": 2059, "LAT": 43.551547, "LON": -90.888045, "STATE_FIPS": 55, "COUNTY": "Vernon", "COUNTY_FIPS": 55123, "TYPE_DESC": "HOSPITAL", "SUB_TYPE_DESC": "CRITICAL ACCESS HOSPITALS", "WI_LICENSE_NUM": 1053, "ASPEN_FACILITY_ID": "HSPLACU130", "MEDICARE_ID": "521348", "ALIS_NAME": "VERNON MEMORIAL HOSPITAL", "WITRAC_NAME": "Vernon Memorial Hospital", "NAME": "Vernon Memorial Healthcare", "TYPE_CODE": "1", "FACILITY_TYPE_CODE": "14", "URL": "http://www.vmh.org/" }, "geometry": { "type": "Point", "coordinates": [ -90.888045, 43.551547 ] } },
{ "type": "Feature", "properties": { "OBJECTID": 133, "FACILITY_INTERNAL_ID": 2293, "ADDRESS": "8901 W Lincoln Ave", "ADDRESS_2": null, "CITY": "West Allis", "STATE": "WI", "ZIP": 53227, "ZIP_4": 2409, "LAT": 43.00114, "LON": -88.02422, "STATE_FIPS": 55, "COUNTY": "Milwaukee", "COUNTY_FIPS": 55079, "TYPE_DESC": "HOSPITAL", "SUB_TYPE_DESC": "SHORT TERM", "WI_LICENSE_NUM": 149, "ASPEN_FACILITY_ID": "HSPLACU136", "MEDICARE_ID": "520139", "ALIS_NAME": "AURORA WEST ALLIS MEDICAL CENTER", "WITRAC_NAME": "Aurora West Allis Medical Center", "NAME": "Aurora West Allis Medical Center", "TYPE_CODE": "1", "FACILITY_TYPE_CODE": "11", "URL": "https://www.aurorahealthcare.org/locations/hospital/aurora-west-allis-medical-center" }, "geometry": { "type": "Point", "coordinates": [ -88.02422, 43.00114 ] } },
{ "type": "Feature", "properties": { "OBJECTID": 134, "FACILITY_INTERNAL_ID": 2437, "ADDRESS": "3100 Superior Ave", "ADDRESS_2": null, "CITY": "Sheboygan", "STATE": "WI", "ZIP": 53081, "ZIP_4": 1948, "LAT": 43.762764, "LON": -87.747466, "STATE_FIPS": 55, "COUNTY": "Sheboygan", "COUNTY_FIPS": 55117, "TYPE_DESC": "HOSPITAL", "SUB_TYPE_DESC": "SHORT TERM", "WI_LICENSE_NUM": 37, "ASPEN_FACILITY_ID": "HSPLACU120", "MEDICARE_ID": "520044", "ALIS_NAME": "ST NICHOLAS HOSPITAL", "WITRAC_NAME": "St. Nicholas Hospital", "NAME": "HSHS St. Nicholas Hospital", "TYPE_CODE": "1", "FACILITY_TYPE_CODE": "11", "URL": "https://www.stnicholashospital.org/Home/" }, "geometry": { "type": "Point", "coordinates": [ -87.747466, 43.762764 ] } },
{ "type": "Feature", "properties": { "OBJECTID": 135, "FACILITY_INTERNAL_ID": 2438, "ADDRESS": "611 N Saint Joseph Ave", "ADDRESS_2": null, "CITY": "Marshfield", "STATE": "WI", "ZIP": 54449, "ZIP_4": 1832, "LAT": 44.678031, "LON": -90.179048, "STATE_FIPS": 55, "COUNTY": "Wood", "COUNTY_FIPS": 55141, "TYPE_DESC": "HOSPITAL", "SUB_TYPE_DESC": "SHORT TERM", "WI_LICENSE_NUM": 51, "ASPEN_FACILITY_ID": "HSPLACU102", "MEDICARE_ID": "520037", "ALIS_NAME": "MARSHFIELD MEDICAL CENTER", "WITRAC_NAME": "Marshfield Medical Center", "NAME": "Marshfield - Marshfield Medical Center", "TYPE_CODE": "1", "FACILITY_TYPE_CODE": "11", "URL": "https://www.marshfieldclinic.org/locations/centers/marshfield%20-%20marshfield%20medical%20center" }, "geometry": { "type": "Point", "coordinates": [ -90.179048, 44.678031 ] } },
{ "type": "Feature", "properties": { "OBJECTID": 136, "FACILITY_INTERNAL_ID": 2440, "ADDRESS": "2600 65th Ave", "ADDRESS_2": null, "CITY": "Osceola", "STATE": "WI", "ZIP": 54020, "ZIP_4": 4370, "LAT": 45.301919, "LON": -92.700151, "STATE_FIPS": 55, "COUNTY": "Polk", "COUNTY_FIPS": 55095, "TYPE_DESC": "HOSPITAL", "SUB_TYPE_DESC": "CRITICAL ACCESS HOSPITALS", "WI_LICENSE_NUM": 1021, "ASPEN_FACILITY_ID": "HSPLACU50", "MEDICARE_ID": "521318", "ALIS_NAME": "LADD MEMORIAL HOSPITAL", "WITRAC_NAME": "Osceola Medical Center", "NAME": "Osceola Medical Center", "TYPE_CODE": "1", "FACILITY_TYPE_CODE": "14", "URL": "https://myomc.org/" }, "geometry": { "type": "Point", "coordinates": [ -92.700151, 45.301919 ] } },
{ "type": "Feature", "properties": { "OBJECTID": 137, "FACILITY_INTERNAL_ID": 2441, "ADDRESS": "1000 Mineral Point Ave", "ADDRESS_2": null, "CITY": "Janesville", "STATE": "WI", "ZIP": 53548, "ZIP_4": 2940, "LAT": 42.687418, "LON": -89.03337, "STATE_FIPS": 55, "COUNTY": "Rock", "COUNTY_FIPS": 55105, "TYPE_DESC": "HOSPITAL", "SUB_TYPE_DESC": "SHORT TERM", "WI_LICENSE_NUM": 162, "ASPEN_FACILITY_ID": "HSPLACU64", "MEDICARE_ID": "520066", "ALIS_NAME": "MERCY HEALTH SYSTEM CORP", "WITRAC_NAME": "Mercy Hospital & Trauma Center - Janesvi", "NAME": "Mercyhealth Hospital and Trauma Center–Janesville", "TYPE_CODE": "1", "FACILITY_TYPE_CODE": "11", "URL": "https://mercyhealthsystem.org/location/mercyhealth-hospital-and-trauma-center-janesville/" }, "geometry": { "type": "Point", "coordinates": [ -89.03337, 42.687418 ] } },
{ "type": "Feature", "properties": { "OBJECTID": 138, "FACILITY_INTERNAL_ID": 2719, "ADDRESS": "5000 Memorial Dr", "ADDRESS_2": null, "CITY": "Two Rivers", "STATE": "WI", "ZIP": 54241, "ZIP_4": 3900, "LAT": 44.126545, "LON": -87.616758, "STATE_FIPS": 55, "COUNTY": "Manitowoc", "COUNTY_FIPS": 55071, "TYPE_DESC": "HOSPITAL", "SUB_TYPE_DESC": "SHORT TERM", "WI_LICENSE_NUM": 85, "ASPEN_FACILITY_ID": "HSPLACU126", "MEDICARE_ID": "520034", "ALIS_NAME": "AURORA MEDICAL CTR MANITOWOC COUNTY", "WITRAC_NAME": "Aurora Medical Center - Manitowoc County", "NAME": "Aurora Medical Center in Manitowoc County", "TYPE_CODE": "1", "FACILITY_TYPE_CODE": "11", "URL": "https://www.aurorahealthcare.org/locations/hospital/aurora-medical-center-in-manitowoc-county" }, "geometry": { "type": "Point", "coordinates": [ -87.616758, 44.126545 ] } },
{ "type": "Feature", "properties": { "OBJECTID": 139, "FACILITY_INTERNAL_ID": 3065, "ADDRESS": "402 W Lake St", "ADDRESS_2": null, "CITY": "Friendship", "STATE": "WI", "ZIP": 53934, "ZIP_4": 9699, "LAT": 43.974599, "LON": -89.821335, "STATE_FIPS": 55, "COUNTY": "Adams", "COUNTY_FIPS": 55001, "TYPE_DESC": "HOSPITAL", "SUB_TYPE_DESC": "CRITICAL ACCESS HOSPITALS", "WI_LICENSE_NUM": 1014, "ASPEN_FACILITY_ID": "HSPLACU1", "MEDICARE_ID": "521309", "ALIS_NAME": "MOUNDVIEW MEMORIAL HOSPITAL AND CLINICS", "WITRAC_NAME": "Gundersen Moundview Hospital & Clinics", "NAME": "Gundersen Moundview Hospital and Clinics", "TYPE_CODE": "1", "FACILITY_TYPE_CODE": "14", "URL": "https://www.gundersenhealth.org/moundview/" }, "geometry": { "type": "Point", "coordinates": [ -89.821335, 43.974599 ] } },
{ "type": "Feature", "properties": { "OBJECTID": 140, "FACILITY_INTERNAL_ID": 3067, "ADDRESS": "1818 N Meade St", "ADDRESS_2": null, "CITY": "Appleton", "STATE": "WI", "ZIP": 54911, "ZIP_4": 3454, "LAT": 44.27856, "LON": -88.393659, "STATE_FIPS": 55, "COUNTY": "Outagamie", "COUNTY_FIPS": 55087, "TYPE_DESC": "HOSPITAL", "SUB_TYPE_DESC": "SHORT TERM", "WI_LICENSE_NUM": 169, "ASPEN_FACILITY_ID": "HSPLACU3", "MEDICARE_ID": "520160", "ALIS_NAME": "THEDACARE REGIONAL MEDICAL CENTER - APPLETON INC", "WITRAC_NAME": "ThedaCare Med Center - Appleton", "NAME": "ThedaCare Regional Medical Center-Appleton", "TYPE_CODE": "1", "FACILITY_TYPE_CODE": "11", "URL": "https://www.thedacare.org/hospitals%20and%20clinics/thedacare-regional-medical-center-appleton.aspx" }, "geometry": { "type": "Point", "coordinates": [ -88.393659, 44.27856 ] } },
{ "type": "Feature", "properties": { "OBJECTID": 141, "FACILITY_INTERNAL_ID": 3070, "ADDRESS": "10400 75th St", "ADDRESS_2": null, "CITY": "Kenosha", "STATE": "WI", "ZIP": 53142, "ZIP_4": 7884, "LAT": 42.56986, "LON": -87.9352, "STATE_FIPS": 55, "COUNTY": "Kenosha", "COUNTY_FIPS": 55059, "TYPE_DESC": "HOSPITAL", "SUB_TYPE_DESC": "SHORT TERM", "WI_LICENSE_NUM": 1001, "ASPEN_FACILITY_ID": "HSPLACU6", "MEDICARE_ID": "520189", "ALIS_NAME": "AURORA MEDICAL CTR KENOSHA", "WITRAC_NAME": "Aurora Medical Center - Kenosha", "NAME": "Aurora Medical Center in Kenosha", "TYPE_CODE": "1", "FACILITY_TYPE_CODE": "11", "URL": "https://www.aurorahealthcare.org/locations/hospital/aurora-medical-center-in-kenosha" }, "geometry": { "type": "Point", "coordinates": [ -87.9352, 42.56986 ] } },
{ "type": "Feature", "properties": { "OBJECTID": 142, "FACILITY_INTERNAL_ID": 3071, "ADDRESS": "1100 Bergslien St", "ADDRESS_2": null, "CITY": "Baldwin", "STATE": "WI", "ZIP": 54002, "ZIP_4": 2600, "LAT": 44.941338, "LON": -92.378701, "STATE_FIPS": 55, "COUNTY": "Saint Croix", "COUNTY_FIPS": 55109, "TYPE_DESC": "HOSPITAL", "SUB_TYPE_DESC": "CRITICAL ACCESS HOSPITALS", "WI_LICENSE_NUM": 1052, "ASPEN_FACILITY_ID": "HSPLACU7", "MEDICARE_ID": "521347", "ALIS_NAME": "WESTERN WISCONSIN HEALTH", "WITRAC_NAME": "Western Wisconsin Health", "NAME": "Western Wisconsin Health", "TYPE_CODE": "1", "FACILITY_TYPE_CODE": "14", "URL": "https://www.wwhealth.org/" }, "geometry": { "type": "Point", "coordinates": [ -92.378701, 44.941338 ] } },
{ "type": "Feature", "properties": { "OBJECTID": 143, "FACILITY_INTERNAL_ID": 3072, "ADDRESS": "1222 E Woodland Ave", "ADDRESS_2": null, "CITY": "Barron", "STATE": "WI", "ZIP": 54812, "ZIP_4": 1765, "LAT": 45.397383, "LON": -91.840476, "STATE_FIPS": 55, "COUNTY": "Barron", "COUNTY_FIPS": 55005, "TYPE_DESC": "HOSPITAL", "SUB_TYPE_DESC": "CRITICAL ACCESS HOSPITALS", "WI_LICENSE_NUM": 1018, "ASPEN_FACILITY_ID": "HSPLACU8", "MEDICARE_ID": "521315", "ALIS_NAME": "MAYO CLINIC HEALTH SYSTEM-NORTHLAND", "WITRAC_NAME": "Mayo Clinic Health System - Northland", "NAME": "Mayo Clinic Health System – Northland in Barron", "TYPE_CODE": "1", "FACILITY_TYPE_CODE": "14", "URL": "https://mayoclinichealthsystem.org/locations/barron" }, "geometry": { "type": "Point", "coordinates": [ -91.840476, 45.397383 ] } },
{ "type": "Feature", "properties": { "OBJECTID": 144, "FACILITY_INTERNAL_ID": 3073, "ADDRESS": "3003 University Dr", "ADDRESS_2": null, "CITY": "Marinette", "STATE": "WI", "ZIP": 54143, "ZIP_4": 4110, "LAT": 45.07077, "LON": -87.64736, "STATE_FIPS": 55, "COUNTY": "Marinette", "COUNTY_FIPS": 55075, "TYPE_DESC": "HOSPITAL", "SUB_TYPE_DESC": "SHORT TERM", "WI_LICENSE_NUM": 155, "ASPEN_FACILITY_ID": "HSPLACU9", "MEDICARE_ID": "520113", "ALIS_NAME": "BAY AREA MEDICAL CENTER", "WITRAC_NAME": "Bay Area Medical Center", "NAME": "Bay Area Medical Center", "TYPE_CODE": "1", "FACILITY_TYPE_CODE": "11", "URL": "https://www.bamc.org/" }, "geometry": { "type": "Point", "coordinates": [ -87.64736, 45.07077 ] } },
{ "type": "Feature", "properties": { "OBJECTID": 145, "FACILITY_INTERNAL_ID": 3074, "ADDRESS": "707 S University Ave", "ADDRESS_2": null, "CITY": "Beaver Dam", "STATE": "WI", "ZIP": 53916, "ZIP_4": 3027, "LAT": 43.448812, "LON": -88.825848, "STATE_FIPS": 55, "COUNTY": "Dodge", "COUNTY_FIPS": 55027, "TYPE_DESC": "HOSPITAL", "SUB_TYPE_DESC": "SHORT TERM", "WI_LICENSE_NUM": 199, "ASPEN_FACILITY_ID": "HSPLACU10", "MEDICARE_ID": "520076", "ALIS_NAME": "BEAVER DAM COMMUNITY HOSPITAL", "WITRAC_NAME": "Beaver Dam Community Hospital", "NAME": "Beaver Dam Community Hospital", "TYPE_CODE": "1", "FACILITY_TYPE_CODE": "11", "URL": "https://www.bdch.com/" }, "geometry": { "type": "Point", "coordinates": [ -88.825848, 43.448812 ] } },
{ "type": "Feature", "properties": { "OBJECTID": 146, "FACILITY_INTERNAL_ID": 3075, "ADDRESS": "744 S Webster Ave", "ADDRESS_2": null, "CITY": "Green Bay", "STATE": "WI", "ZIP": 54305, "ZIP_4": 3505, "LAT": 44.502263, "LON": -88.011254, "STATE_FIPS": 55, "COUNTY": "Brown", "COUNTY_FIPS": 55009, "TYPE_DESC": "HOSPITAL", "SUB_TYPE_DESC": "SHORT TERM", "WI_LICENSE_NUM": 147, "ASPEN_FACILITY_ID": "HSPLACU11", "MEDICARE_ID": "520049", "ALIS_NAME": "BELLIN MEMORIAL HOSPITAL", "WITRAC_NAME": "Bellin Hospital Green Bay", "NAME": "Bellin Hospital Green Bay", "TYPE_CODE": "1", "FACILITY_TYPE_CODE": "11", "URL": "https://care.bellin.org/location/bellin-hospital-green-bay-54301" }, "geometry": { "type": "Point", "coordinates": [ -88.011254, 44.502263 ] } },
{ "type": "Feature", "properties": { "OBJECTID": 147, "FACILITY_INTERNAL_ID": 3076, "ADDRESS": "1969 W Hart Rd", "ADDRESS_2": null, "CITY": "Beloit", "STATE": "WI", "ZIP": 53511, "ZIP_4": 2230, "LAT": 42.548266, "LON": -89.008459, "STATE_FIPS": 55, "COUNTY": "Rock", "COUNTY_FIPS": 55105, "TYPE_DESC": "HOSPITAL", "SUB_TYPE_DESC": "SHORT TERM", "WI_LICENSE_NUM": 67, "ASPEN_FACILITY_ID": "HSPLACU12", "MEDICARE_ID": "520100", "ALIS_NAME": "BELOIT MEMORIAL HOSPITAL", "WITRAC_NAME": "Beloit Memorial Hospital", "NAME": "Beloit Memorial Hospital", "TYPE_CODE": "1", "FACILITY_TYPE_CODE": "11", "URL": "https://beloithealthsystem.org/" }, "geometry": { "type": "Point", "coordinates": [ -89.008459, 42.548266 ] } },
{ "type": "Feature", "properties": { "OBJECTID": 148, "FACILITY_INTERNAL_ID": 3078, "ADDRESS": "711 W Adams St", "ADDRESS_2": null, "CITY": "Black River Falls", "STATE": "WI", "ZIP": 54615, "ZIP_4": 2200, "LAT": 44.303172, "LON": -90.85506, "STATE_FIPS": 55, "COUNTY": "Jackson", "COUNTY_FIPS": 55053, "TYPE_DESC": "HOSPITAL", "SUB_TYPE_DESC": "CRITICAL ACCESS HOSPITALS", "WI_LICENSE_NUM": 1037, "ASPEN_FACILITY_ID": "HSPLACU14", "MEDICARE_ID": "521333", "ALIS_NAME": "BLACK RIVER MEMORIAL HOSPITAL", "WITRAC_NAME": "Black River Memorial Hospital", "NAME": "Black River Memorial Hospital", "TYPE_CODE": "1", "FACILITY_TYPE_CODE": "14", "URL": "https://www.brmh.net/" }, "geometry": { "type": "Point", "coordinates": [ -90.85506, 44.303172 ] } },
{ "type": "Feature", "properties": { "OBJECTID": 149, "FACILITY_INTERNAL_ID": 3079, "ADDRESS": "1501 Thompson St", "ADDRESS_2": null, "CITY": "Bloomer", "STATE": "WI", "ZIP": 54724, "ZIP_4": 1257, "LAT": 45.101904, "LON": -91.501751, "STATE_FIPS": 55, "COUNTY": "Chippewa", "COUNTY_FIPS": 55017, "TYPE_DESC": "HOSPITAL", "SUB_TYPE_DESC": "CRITICAL ACCESS HOSPITALS", "WI_LICENSE_NUM": 1017, "ASPEN_FACILITY_ID": "HSPLACU15", "MEDICARE_ID": "521314", "ALIS_NAME": "MAYO CLINIC HEALTH SYSTEM-CHIPPEWA VALLEY", "WITRAC_NAME": "Mayo Clinic Health System-ChippewaValley", "NAME": "Mayo Clinic Health System – Chippewa Valley in Chippewa Falls", "TYPE_CODE": "1", "FACILITY_TYPE_CODE": "14", "URL": "https://mayoclinichealthsystem.org/locations/chippewa-falls" }, "geometry": { "type": "Point", "coordinates": [ -91.501751, 45.101904 ] } },
{ "type": "Feature", "properties": { "OBJECTID": 150, "FACILITY_INTERNAL_ID": 3080, "ADDRESS": "205 Parker St", "ADDRESS_2": null, "CITY": "Boscobel", "STATE": "WI", "ZIP": 53805, "ZIP_4": 1642, "LAT": 43.13337, "LON": -90.70818, "STATE_FIPS": 55, "COUNTY": "Grant", "COUNTY_FIPS": 55043, "TYPE_DESC": "HOSPITAL", "SUB_TYPE_DESC": "CRITICAL ACCESS HOSPITALS", "WI_LICENSE_NUM": 1048, "ASPEN_FACILITY_ID": "HSPLACU16", "MEDICARE_ID": "521344", "ALIS_NAME": "GUNDERSEN BOSCOBEL AREA HOSPITAL AND CLINICS", "WITRAC_NAME": "Gundersen Boscobel Area Hospital", "NAME": "Gundersen Boscobel Area Hospital and Clinics", "TYPE_CODE": "1", "FACILITY_TYPE_CODE": "14", "URL": "https://www.gundersenhealth.org/boscobel/" }, "geometry": { "type": "Point", "coordinates": [ -90.70818, 43.13337 ] } },
{ "type": "Feature", "properties": { "OBJECTID": 151, "FACILITY_INTERNAL_ID": 3081, "ADDRESS": "257 W Saint George Ave", "ADDRESS_2": null, "CITY": "Grantsburg", "STATE": "WI", "ZIP": 54840, "ZIP_4": 7827, "LAT": 45.774397, "LON": -92.686767, "STATE_FIPS": 55, "COUNTY": "Burnett", "COUNTY_FIPS": 55013, "TYPE_DESC": "HOSPITAL", "SUB_TYPE_DESC": "CRITICAL ACCESS HOSPITALS", "WI_LICENSE_NUM": 1034, "ASPEN_FACILITY_ID": "HSPLACU17", "MEDICARE_ID": "521331", "ALIS_NAME": "BURNETT MEDICAL CENTER", "WITRAC_NAME": "Burnett Medical Center", "NAME": "Burnett Medical Center", "TYPE_CODE": "1", "FACILITY_TYPE_CODE": "14", "URL": "http://www.burnettmedicalcenter.com/" }, "geometry": { "type": "Point", "coordinates": [ -92.686767, 45.774397 ] } },
{ "type": "Feature", "properties": { "OBJECTID": 152, "FACILITY_INTERNAL_ID": 3165, "ADDRESS": "240 Maple St", "ADDRESS_2": null, "CITY": "Woodruff", "STATE": "WI", "ZIP": 54568, "ZIP_4": 9190, "LAT": 45.893471, "LON": -89.702188, "STATE_FIPS": 55, "COUNTY": "Oneida", "COUNTY_FIPS": 55085, "TYPE_DESC": "HOSPITAL", "SUB_TYPE_DESC": "SHORT TERM", "WI_LICENSE_NUM": 201, "ASPEN_FACILITY_ID": "HSPLACU45", "MEDICARE_ID": "520091", "ALIS_NAME": "HOWARD YOUNG MEDICAL CTR", "WITRAC_NAME": "Howard Young Medical Center", "NAME": "Howard Young Medical Center", "TYPE_CODE": "1", "FACILITY_TYPE_CODE": "11", "URL": "https://healthcare.ascension.org/Locations/Wisconsin/WIAPM/Woodruff-Howard-Young-Medical-Center" }, "geometry": { "type": "Point", "coordinates": [ -89.702188, 45.893471 ] } },
{ "type": "Feature", "properties": { "OBJECTID": 153, "FACILITY_INTERNAL_ID": 3166, "ADDRESS": "216 Sunset Pl", "ADDRESS_2": null, "CITY": "Neillsville", "STATE": "WI", "ZIP": 54456, "ZIP_4": 1706, "LAT": 44.557823, "LON": -90.607727, "STATE_FIPS": 55, "COUNTY": "Clark", "COUNTY_FIPS": 55019, "TYPE_DESC": "HOSPITAL", "SUB_TYPE_DESC": "CRITICAL ACCESS HOSPITALS", "WI_LICENSE_NUM": 1026, "ASPEN_FACILITY_ID": "HSPLACU62", "MEDICARE_ID": "521323", "ALIS_NAME": "MARSHFIELD MEDICAL CENTER - NEILLSVILLE", "WITRAC_NAME": "Marshfield Medical Center - Neillsville", "NAME": "Marshfield Medical Center - Neillsville", "TYPE_CODE": "1", "FACILITY_TYPE_CODE": "14", "URL": "http://memorialmedcenter.org/" }, "geometry": { "type": "Point", "coordinates": [ -90.607727, 44.557823 ] } },
{ "type": "Feature", "properties": { "OBJECTID": 154, "FACILITY_INTERNAL_ID": 3496, "ADDRESS": "3237 S 16th St", "ADDRESS_2": null, "CITY": "Milwaukee", "STATE": "WI", "ZIP": 53215, "ZIP_4": 4526, "LAT": 42.98566, "LON": -87.93582, "STATE_FIPS": 55, "COUNTY": "Milwaukee", "COUNTY_FIPS": 55079, "TYPE_DESC": "HOSPITAL", "SUB_TYPE_DESC": "SHORT TERM", "WI_LICENSE_NUM": 75, "ASPEN_FACILITY_ID": "HSPLACU98", "MEDICARE_ID": "520078", "ALIS_NAME": "ASCENSION ST FRANCIS HOSPITAL", "WITRAC_NAME": "Ascension St Francis Hospital", "NAME": "Ascension St. Francis Hospital", "TYPE_CODE": "1", "FACILITY_TYPE_CODE": "11", "URL": "https://healthcare.ascension.org/Locations/Wisconsin/WIWHE/Milwaukee-Ascension-St-Francis-Hospital" }, "geometry": { "type": "Point", "coordinates": [ -87.93582, 42.98566 ] } },
{ "type": "Feature", "properties": { "OBJECTID": 155, "FACILITY_INTERNAL_ID": 3497, "ADDRESS": "2817 New Pinery Rd", "ADDRESS_2": null, "CITY": "Portage", "STATE": "WI", "ZIP": 53901, "ZIP_4": 9240, "LAT": 43.566801, "LON": -89.466666, "STATE_FIPS": 55, "COUNTY": "Columbia", "COUNTY_FIPS": 55021, "TYPE_DESC": "HOSPITAL", "SUB_TYPE_DESC": "SHORT TERM", "WI_LICENSE_NUM": 80, "ASPEN_FACILITY_ID": "HSPLACU27", "MEDICARE_ID": "520041", "ALIS_NAME": "DIVINE SAVIOR HEALTHCARE", "WITRAC_NAME": "Divine Savior Healthcare, Inc.", "NAME": "Divine Savior Healthcare", "TYPE_CODE": "1", "FACILITY_TYPE_CODE": "11", "URL": "https://dshealthcare.com/" }, "geometry": { "type": "Point", "coordinates": [ -89.466666, 43.566801 ] } },
{ "type": "Feature", "properties": { "OBJECTID": 156, "FACILITY_INTERNAL_ID": 3535, "ADDRESS": "800 Riverside Dr", "ADDRESS_2": null, "CITY": "Waupaca", "STATE": "WI", "ZIP": 54981, "ZIP_4": 1943, "LAT": 44.345624, "LON": -89.076742, "STATE_FIPS": 55, "COUNTY": "Waupaca", "COUNTY_FIPS": 55135, "TYPE_DESC": "HOSPITAL", "SUB_TYPE_DESC": "CRITICAL ACCESS HOSPITALS", "WI_LICENSE_NUM": 1038, "ASPEN_FACILITY_ID": "HSPLACU76", "MEDICARE_ID": "521334", "ALIS_NAME": "THEDACARE MEDICAL CENTER - WAUPACA INC", "WITRAC_NAME": "ThedaCare Med Center - Waupaca", "NAME": "ThedaCare Medical Center-Waupaca", "TYPE_CODE": "1", "FACILITY_TYPE_CODE": "14", "URL": "https://www.thedacare.org/hospitals%20and%20clinics/thedacare-medical-center-waupaca.aspx" }, "geometry": { "type": "Point", "coordinates": [ -89.076742, 44.345624 ] } },
{ "type": "Feature", "properties": { "OBJECTID": 157, "FACILITY_INTERNAL_ID": 3666, "ADDRESS": "1910 South Ave", "ADDRESS_2": null, "CITY": "La Crosse", "STATE": "WI", "ZIP": 54601, "ZIP_4": 5467, "LAT": 43.794282, "LON": -91.247147, "STATE_FIPS": 55, "COUNTY": "La Crosse", "COUNTY_FIPS": 55063, "TYPE_DESC": "HOSPITAL", "SUB_TYPE_DESC": "SHORT TERM", "WI_LICENSE_NUM": 23, "ASPEN_FACILITY_ID": "HSPLACU49", "MEDICARE_ID": "520087", "ALIS_NAME": "GUNDERSEN LUTHERAN MEDICAL CENTER", "WITRAC_NAME": "Gundersen Health System - La Crosse", "NAME": "Gundersen Lutheran Medical Center", "TYPE_CODE": "1", "FACILITY_TYPE_CODE": "11", "URL": "https://www.gundersenhealth.org/locations/la-crosse-campus/hospital/" }, "geometry": { "type": "Point", "coordinates": [ -91.247147, 43.794282 ] } },
{ "type": "Feature", "properties": { "OBJECTID": 158, "FACILITY_INTERNAL_ID": 3667, "ADDRESS": "135 S Gibson St", "ADDRESS_2": null, "CITY": "Medford", "STATE": "WI", "ZIP": 54451, "ZIP_4": 1622, "LAT": 45.135264, "LON": -90.356017, "STATE_FIPS": 55, "COUNTY": "Taylor", "COUNTY_FIPS": 55119, "TYPE_DESC": "HOSPITAL", "SUB_TYPE_DESC": "CRITICAL ACCESS HOSPITALS", "WI_LICENSE_NUM": 1027, "ASPEN_FACILITY_ID": "HSPLACU57", "MEDICARE_ID": "521324", "ALIS_NAME": "ASPIRUS MEDFORD HOSPITAL & CLINICS, INC", "WITRAC_NAME": "Aspirus Medford Hospital", "NAME": "Aspirus Medford Hospital", "TYPE_CODE": "1", "FACILITY_TYPE_CODE": "14", "URL": "https://www.aspirus.org/find-a-location/aspirus-medford-hospital-25" }, "geometry": { "type": "Point", "coordinates": [ -90.356017, 45.135264 ] } },
{ "type": "Feature", "properties": { "OBJECTID": 159, "FACILITY_INTERNAL_ID": 3867, "ADDRESS": "1506 S Oneida St", "ADDRESS_2": null, "CITY": "Appleton", "STATE": "WI", "ZIP": 54915, "ZIP_4": 1305, "LAT": 44.24831, "LON": -88.40269, "STATE_FIPS": 55, "COUNTY": "Outagamie", "COUNTY_FIPS": 55087, "TYPE_DESC": "HOSPITAL", "SUB_TYPE_DESC": "SHORT TERM", "WI_LICENSE_NUM": 88, "ASPEN_FACILITY_ID": "HSPLACU97", "MEDICARE_ID": "520009", "ALIS_NAME": "ASCENSION NE WISCONSIN - ST ELIZABETH CAMPUS", "WITRAC_NAME": "Ascension St. Elizabeth Appleton", "NAME": "Ascension NE Wisconsin - St. Elizabeth Campus", "TYPE_CODE": "1", "FACILITY_TYPE_CODE": "11", "URL": "https://healthcare.ascension.org/Locations/Wisconsin/WIAPA/Appleton-Ascension-NE-Wisconsin-St-Elizabeth-Campus" }, "geometry": { "type": "Point", "coordinates": [ -88.40269, 44.24831 ] } },
{ "type": "Feature", "properties": { "OBJECTID": 160, "FACILITY_INTERNAL_ID": 3995, "ADDRESS": "725 American Ave", "ADDRESS_2": null, "CITY": "Waukesha", "STATE": "WI", "ZIP": 53188, "ZIP_4": 5031, "LAT": 43.011174, "LON": -88.243083, "STATE_FIPS": 55, "COUNTY": "Waukesha", "COUNTY_FIPS": 55133, "TYPE_DESC": "HOSPITAL", "SUB_TYPE_DESC": "SHORT TERM", "WI_LICENSE_NUM": 41, "ASPEN_FACILITY_ID": "HSPLACU133", "MEDICARE_ID": "520008", "ALIS_NAME": "WAUKESHA MEMORIAL HOSPITAL", "WITRAC_NAME": "Waukesha Memorial Hospital, Inc.", "NAME": "ProHealth Waukesha Memorial Hospital", "TYPE_CODE": "1", "FACILITY_TYPE_CODE": "11", "URL": "https://www.prohealthcare.org/facility-waukesha-prohealth-waukesha-memorial-hospital" }, "geometry": { "type": "Point", "coordinates": [ -88.243083, 43.011174 ] } },
{ "type": "Feature", "properties": { "OBJECTID": 161, "FACILITY_INTERNAL_ID": 4134, "ADDRESS": "700 S Park St", "ADDRESS_2": null, "CITY": "Madison", "STATE": "WI", "ZIP": 53715, "ZIP_4": 1830, "LAT": 43.05927, "LON": -89.40151, "STATE_FIPS": 55, "COUNTY": "Dane", "COUNTY_FIPS": 55025, "TYPE_DESC": "HOSPITAL", "SUB_TYPE_DESC": "SHORT TERM", "WI_LICENSE_NUM": 71, "ASPEN_FACILITY_ID": "HSPLACU111", "MEDICARE_ID": "520083", "ALIS_NAME": "SSM HEALTH ST MARY'S HOSPITAL - MADISON", "WITRAC_NAME": "St. Mary's - Madison", "NAME": "SSM Health St. Mary's Hospital - Madison", "TYPE_CODE": "1", "FACILITY_TYPE_CODE": "11", "URL": "https://www.ssmhealth.com/locations/st-marys-hospital-madison" }, "geometry": { "type": "Point", "coordinates": [ -89.40151, 43.05927 ] } },
{ "type": "Feature", "properties": { "OBJECTID": 162, "FACILITY_INTERNAL_ID": 4178, "ADDRESS": "201 Hospital Rd", "ADDRESS_2": null, "CITY": "Eagle River", "STATE": "WI", "ZIP": 54521, "ZIP_4": 8835, "LAT": 45.928181, "LON": -89.251653, "STATE_FIPS": 55, "COUNTY": "Vilas", "COUNTY_FIPS": 55125, "TYPE_DESC": "HOSPITAL", "SUB_TYPE_DESC": "CRITICAL ACCESS HOSPITALS", "WI_LICENSE_NUM": 1000, "ASPEN_FACILITY_ID": "HSPLCRI1", "MEDICARE_ID": "521300", "ALIS_NAME": "ASCENSION EAGLE RIVER HOSPITAL", "WITRAC_NAME": "Ascension Eagle River Hospital", "NAME": "Ascension Eagle River Hospital", "TYPE_CODE": "1", "FACILITY_TYPE_CODE": "14", "URL": "https://healthcare.ascension.org/Locations/Wisconsin/WIAPM/Eagle-River-Memorial-Hospital" }, "geometry": { "type": "Point", "coordinates": [ -89.251653, 45.928181 ] } },
{ "type": "Feature", "properties": { "OBJECTID": 163, "FACILITY_INTERNAL_ID": 4490, "ADDRESS": "2629 N 7th St", "ADDRESS_2": null, "CITY": "Sheboygan", "STATE": "WI", "ZIP": 53083, "ZIP_4": 4932, "LAT": 43.772867, "LON": -87.710409, "STATE_FIPS": 55, "COUNTY": "Sheboygan", "COUNTY_FIPS": 55117, "TYPE_DESC": "HOSPITAL", "SUB_TYPE_DESC": "SHORT TERM", "WI_LICENSE_NUM": 38, "ASPEN_FACILITY_ID": "HSPLACU87", "MEDICARE_ID": "520035", "ALIS_NAME": "AURORA SHEBOYGAN MEMORIAL MEDICAL CTR", "WITRAC_NAME": "Aurora Sheboygan Mem Med Ctr", "NAME": "Aurora Sheboygan Memorial Medical Center", "TYPE_CODE": "1", "FACILITY_TYPE_CODE": "11", "URL": "https://www.aurorahealthcare.org/locations/hospital/aurora-sheboygan-memorial-medical-center" }, "geometry": { "type": "Point", "coordinates": [ -87.710409, 43.772867 ] } },
{ "type": "Feature", "properties": { "OBJECTID": 164, "FACILITY_INTERNAL_ID": 4586, "ADDRESS": "400 Water Ave", "ADDRESS_2": null, "CITY": "Hillsboro", "STATE": "WI", "ZIP": 54634, "ZIP_4": 9054, "LAT": 43.648683, "LON": -90.344913, "STATE_FIPS": 55, "COUNTY": "Vernon", "COUNTY_FIPS": 55123, "TYPE_DESC": "HOSPITAL", "SUB_TYPE_DESC": "CRITICAL ACCESS HOSPITALS", "WI_LICENSE_NUM": 1005, "ASPEN_FACILITY_ID": "HSPLCRI6", "MEDICARE_ID": "521304", "ALIS_NAME": "GUNDERSEN ST JOSEPHS HOSPITAL AND CLINICS", "WITRAC_NAME": "Gundersen - St. Joseph's Hillsboro", "NAME": "Gundersen St. Joseph's Hospital and Clinics Hillsboro", "TYPE_CODE": "1", "FACILITY_TYPE_CODE": "14", "URL": "https://www.gundersenhealth.org/st-josephs/clinic-locations/hillsboro/" }, "geometry": { "type": "Point", "coordinates": [ -90.344913, 43.648683 ] } },
{ "type": "Feature", "properties": { "OBJECTID": 165, "FACILITY_INTERNAL_ID": 4734, "ADDRESS": "13111 N Port Washington Rd", "ADDRESS_2": null, "CITY": "Mequon", "STATE": "WI", "ZIP": 53097, "ZIP_4": 2416, "LAT": 43.256481, "LON": -87.926095, "STATE_FIPS": 55, "COUNTY": "Ozaukee", "COUNTY_FIPS": 55089, "TYPE_DESC": "HOSPITAL", "SUB_TYPE_DESC": "SHORT TERM", "WI_LICENSE_NUM": 246, "ASPEN_FACILITY_ID": "HSPLACU114", "MEDICARE_ID": "520027", "ALIS_NAME": "ASCENSION COLUMBIA ST MARY'S HOSPITAL OZAUKEE", "WITRAC_NAME": "Ascension Columbia St. Mary's Ozaukee", "NAME": "Ascension Columbia St. Mary's Hospital Ozaukee", "TYPE_CODE": "1", "FACILITY_TYPE_CODE": "11", "URL": "https://healthcare.ascension.org/Locations/Wisconsin/WIMIL/Mequon-Ascension-Columbia-St-Marys-Hospital-Ozaukee" }, "geometry": { "type": "Point", "coordinates": [ -87.926095, 43.256481000000115 ] } },
{ "type": "Feature", "properties": { "OBJECTID": 166, "FACILITY_INTERNAL_ID": 4876, "ADDRESS": "900 Illinois Ave", "ADDRESS_2": null, "CITY": "Stevens Point", "STATE": "WI", "ZIP": 54481, "ZIP_4": 3114, "LAT": 44.526208, "LON": -89.567073, "STATE_FIPS": 55, "COUNTY": "Portage", "COUNTY_FIPS": 55097, "TYPE_DESC": "HOSPITAL", "SUB_TYPE_DESC": "SHORT TERM", "WI_LICENSE_NUM": 146, "ASPEN_FACILITY_ID": "HSPLACU119", "MEDICARE_ID": "520002", "ALIS_NAME": "ASCENSION ST MICHAELS HOSPITAL", "WITRAC_NAME": "Ascension St. Michael's Hospital ", "NAME": "Ascension St. Michael's Hospital ", "TYPE_CODE": "1", "FACILITY_TYPE_CODE": "11", "URL": "https://healthcare.ascension.org/Locations/Wisconsin/WIAPM/Stevens-Point-Saint-Michaels-Hospital" }, "geometry": { "type": "Point", "coordinates": [ -89.567073, 44.526208 ] } },
{ "type": "Feature", "properties": { "OBJECTID": 167, "FACILITY_INTERNAL_ID": 4902, "ADDRESS": "202 S Park St", "ADDRESS_2": null, "CITY": "Madison", "STATE": "WI", "ZIP": 53715, "ZIP_4": 1507, "LAT": 43.06487, "LON": -89.40168, "STATE_FIPS": 55, "COUNTY": "Dane", "COUNTY_FIPS": 55025, "TYPE_DESC": "HOSPITAL", "SUB_TYPE_DESC": "SHORT TERM", "WI_LICENSE_NUM": 248, "ASPEN_FACILITY_ID": "HSPLACU66", "MEDICARE_ID": "520089", "ALIS_NAME": "UNITYPOINT HEALTH - MERITER", "WITRAC_NAME": "Meriter Hospital", "NAME": "UnityPoint Health - Meriter", "TYPE_CODE": "1", "FACILITY_TYPE_CODE": "11", "URL": "https://www.unitypoint.org/madison/default.aspx" }, "geometry": { "type": "Point", "coordinates": [ -89.40168, 43.06487 ] } },
{ "type": "Feature", "properties": { "OBJECTID": 168, "FACILITY_INTERNAL_ID": 6013, "ADDRESS": "9200 W Wisconsin Ave", "ADDRESS_2": null, "CITY": "Milwaukee", "STATE": "WI", "ZIP": 53226, "ZIP_4": 3522, "LAT": 43.040875, "LON": -88.024044, "STATE_FIPS": 55, "COUNTY": "Milwaukee", "COUNTY_FIPS": 55079, "TYPE_DESC": "HOSPITAL", "SUB_TYPE_DESC": "SHORT TERM", "WI_LICENSE_NUM": 232, "ASPEN_FACILITY_ID": "HSPLACU35", "MEDICARE_ID": "520177", "ALIS_NAME": "FROEDTERT MEMORIAL LUTHERAN HOSPITAL", "WITRAC_NAME": "Froedtert Hospital - Froedtert & MCW", "NAME": "Froedtert Hospital", "TYPE_CODE": "1", "FACILITY_TYPE_CODE": "11", "URL": "https://www.froedtert.com/locations/hospital/froedtert-hospital" }, "geometry": { "type": "Point", "coordinates": [ -88.024044, 43.040875 ] } },
{ "type": "Feature", "properties": { "OBJECTID": 169, "FACILITY_INTERNAL_ID": 6054, "ADDRESS": "9000 W Wisconsin Ave", "ADDRESS_2": null, "CITY": "Milwaukee", "STATE": "WI", "ZIP": 53226, "ZIP_4": 4874, "LAT": 43.040875, "LON": -88.024044, "STATE_FIPS": 55, "COUNTY": "Milwaukee", "COUNTY_FIPS": 55079, "TYPE_DESC": "HOSPITAL", "SUB_TYPE_DESC": "CHILDRENS", "WI_LICENSE_NUM": 135, "ASPEN_FACILITY_ID": "HSPLACU19", "MEDICARE_ID": "523300", "ALIS_NAME": "CHILDRENS HOSPITAL OF WISCONSIN", "WITRAC_NAME": "Children's Hospital of WI - Milwaukee", "NAME": "Children's Hospital of Wisconsin-Milwaukee Campus", "TYPE_CODE": "1", "FACILITY_TYPE_CODE": "16", "URL": "https://chw.org/location-directory/locations/milwaukee-campus" }, "geometry": { "type": "Point", "coordinates": [ -88.024044, 43.040875 ] } },
{ "type": "Feature", "properties": { "OBJECTID": 170, "FACILITY_INTERNAL_ID": 6057, "ADDRESS": "1515 Park Ave", "ADDRESS_2": null, "CITY": "Columbus", "STATE": "WI", "ZIP": 53925, "ZIP_4": 1618, "LAT": 43.32252, "LON": -89.035315, "STATE_FIPS": 55, "COUNTY": "Columbia", "COUNTY_FIPS": 55021, "TYPE_DESC": "HOSPITAL", "SUB_TYPE_DESC": "CRITICAL ACCESS HOSPITALS", "WI_LICENSE_NUM": 1042, "ASPEN_FACILITY_ID": "HSPLACU23", "MEDICARE_ID": "521338", "ALIS_NAME": "COLUMBUS COMMUNITY HOSPITAL", "WITRAC_NAME": "Columbus Community Hospital", "NAME": "Columbus Community Hospital", "TYPE_CODE": "1", "FACILITY_TYPE_CODE": "14", "URL": "https://www.cch-inc.com/en/" }, "geometry": { "type": "Point", "coordinates": [ -89.035315, 43.32252 ] } },
{ "type": "Feature", "properties": { "OBJECTID": 171, "FACILITY_INTERNAL_ID": 6058, "ADDRESS": "855 S Main St", "ADDRESS_2": null, "CITY": "Oconto Falls", "STATE": "WI", "ZIP": 54154, "ZIP_4": 1241, "LAT": 44.865206, "LON": -88.128109, "STATE_FIPS": 55, "COUNTY": "Oconto", "COUNTY_FIPS": 55083, "TYPE_DESC": "HOSPITAL", "SUB_TYPE_DESC": "CRITICAL ACCESS HOSPITALS", "WI_LICENSE_NUM": 1012, "ASPEN_FACILITY_ID": "HSPLACU24", "MEDICARE_ID": "521310", "ALIS_NAME": "HSHS ST CLARE MEMORIAL HOSPITAL", "WITRAC_NAME": "St. Clare Memorial Hospital-Oconto Falls", "NAME": "HSHS St. Clare Memorial Hospital", "TYPE_CODE": "1", "FACILITY_TYPE_CODE": "14", "URL": "https://www.stclarememorial.org/Home/" }, "geometry": { "type": "Point", "coordinates": [ -88.128109, 44.865206 ] } },
{ "type": "Feature", "properties": { "OBJECTID": 172, "FACILITY_INTERNAL_ID": 6059, "ADDRESS": "W180N8085 Town Hall Rd", "ADDRESS_2": null, "CITY": "Menomonee Falls", "STATE": "WI", "ZIP": 53051, "ZIP_4": 3518, "LAT": 43.16417, "LON": -88.1373, "STATE_FIPS": 55, "COUNTY": "Waukesha", "COUNTY_FIPS": 55133, "TYPE_DESC": "HOSPITAL", "SUB_TYPE_DESC": "SHORT TERM", "WI_LICENSE_NUM": 28, "ASPEN_FACILITY_ID": "HSPLACU25", "MEDICARE_ID": "520103", "ALIS_NAME": "COMMUNITY MEMORIAL HOSPITAL", "WITRAC_NAME": "Community Mem Hosp - Froedtert & MCW", "NAME": "Community Memorial Hospital", "TYPE_CODE": "1", "FACILITY_TYPE_CODE": "11", "URL": "https://www.froedtert.com/locations/hospital/community-memorial-hospital" }, "geometry": { "type": "Point", "coordinates": [ -88.1373, 43.16417 ] } },
{ "type": "Feature", "properties": { "OBJECTID": 173, "FACILITY_INTERNAL_ID": 6063, "ADDRESS": "98 Sherry Ave", "ADDRESS_2": null, "CITY": "Park Falls", "STATE": "WI", "ZIP": 54552, "ZIP_4": 1467, "LAT": 45.930623, "LON": -90.441116, "STATE_FIPS": 55, "COUNTY": "Price", "COUNTY_FIPS": 55099, "TYPE_DESC": "HOSPITAL", "SUB_TYPE_DESC": "CRITICAL ACCESS HOSPITALS", "WI_LICENSE_NUM": 1028, "ASPEN_FACILITY_ID": "HSPLACU30", "MEDICARE_ID": "521325", "ALIS_NAME": "FLAMBEAU HOSPITAL", "WITRAC_NAME": "Flambeau Hospital", "NAME": "Flambeau Hospital", "TYPE_CODE": "1", "FACILITY_TYPE_CODE": "14", "URL": "https://healthcare.ascension.org/Locations/Wisconsin/WIAPM/Park-Falls-Flambeau-Hospital" }, "geometry": { "type": "Point", "coordinates": [ -90.441116, 45.930623 ] } },
{ "type": "Feature", "properties": { "OBJECTID": 174, "FACILITY_INTERNAL_ID": 6064, "ADDRESS": "611 Sherman Ave E", "ADDRESS_2": null, "CITY": "Fort Atkinson", "STATE": "WI", "ZIP": 53538, "ZIP_4": 1960, "LAT": 42.931511, "LON": -88.827913, "STATE_FIPS": 55, "COUNTY": "Jefferson", "COUNTY_FIPS": 55055, "TYPE_DESC": "HOSPITAL", "SUB_TYPE_DESC": "SHORT TERM", "WI_LICENSE_NUM": 133, "ASPEN_FACILITY_ID": "HSPLACU31", "MEDICARE_ID": "520071", "ALIS_NAME": "FORT MEMORIAL HOSPITAL", "WITRAC_NAME": "Fort Memorial Hospital", "NAME": "Fort Memorial Hospital", "TYPE_CODE": "1", "FACILITY_TYPE_CODE": "11", "URL": "https://www.forthealthcare.com/" }, "geometry": { "type": "Point", "coordinates": [ -88.827913, 42.931511 ] } },
{ "type": "Feature", "properties": { "OBJECTID": 175, "FACILITY_INTERNAL_ID": 6065, "ADDRESS": "700 West Ave S", "ADDRESS_2": null, "CITY": "La Crosse", "STATE": "WI", "ZIP": 54601, "ZIP_4": 4783, "LAT": 43.803996, "LON": -91.240329, "STATE_FIPS": 55, "COUNTY": "La Crosse", "COUNTY_FIPS": 55063, "TYPE_DESC": "HOSPITAL", "SUB_TYPE_DESC": "SHORT TERM", "WI_LICENSE_NUM": 24, "ASPEN_FACILITY_ID": "HSPLACU33", "MEDICARE_ID": "520004", "ALIS_NAME": "MAYO CLINIC HLTH SYSTEM  FRANCISCAN MED CTR", "WITRAC_NAME": "Mayo Clinic Health -Franciscan La Crosse", "NAME": "Mayo Clinic Health System - Franciscan Healthcare La Crosse", "TYPE_CODE": "1", "FACILITY_TYPE_CODE": "11", "URL": "https://mayoclinichealthsystem.org/locations/la-crosse" }, "geometry": { "type": "Point", "coordinates": [ -91.240329, 43.803996 ] } },
{ "type": "Feature", "properties": { "OBJECTID": 176, "FACILITY_INTERNAL_ID": 6067, "ADDRESS": "601 S Center Ave", "ADDRESS_2": null, "CITY": "Merrill", "STATE": "WI", "ZIP": 54452, "ZIP_4": 3404, "LAT": 45.175568, "LON": -89.681764, "STATE_FIPS": 55, "COUNTY": "Lincoln", "COUNTY_FIPS": 55069, "TYPE_DESC": "HOSPITAL", "SUB_TYPE_DESC": "CRITICAL ACCESS HOSPITALS", "WI_LICENSE_NUM": 1043, "ASPEN_FACILITY_ID": "HSPLACU38", "MEDICARE_ID": "521339", "ALIS_NAME": "ASCENSION GOOD SAMARITAN HOSPITAL", "WITRAC_NAME": "Ascension Good Samaritan Hospital ", "NAME": "Ascension Good Samaritan Hospital ", "TYPE_CODE": "1", "FACILITY_TYPE_CODE": "14", "URL": "https://healthcare.ascension.org/Locations/Wisconsin/WIAPM/Merrill-Good-Samaritan-Health-Center" }, "geometry": { "type": "Point", "coordinates": [ -89.681764, 45.175568 ] } },
{ "type": "Feature", "properties": { "OBJECTID": 177, "FACILITY_INTERNAL_ID": 6068, "ADDRESS": "507 S Monroe St", "ADDRESS_2": null, "CITY": "Lancaster", "STATE": "WI", "ZIP": 53813, "ZIP_4": 2054, "LAT": 42.84362, "LON": -90.70889, "STATE_FIPS": 55, "COUNTY": "Grant", "COUNTY_FIPS": 55043, "TYPE_DESC": "HOSPITAL", "SUB_TYPE_DESC": "CRITICAL ACCESS HOSPITALS", "WI_LICENSE_NUM": 1025, "ASPEN_FACILITY_ID": "HSPLACU39", "MEDICARE_ID": "521322", "ALIS_NAME": "GRANT REGIONAL HEALTH CENTER", "WITRAC_NAME": "Grant Regional Health Center", "NAME": "Grant Regional Health Center", "TYPE_CODE": "1", "FACILITY_TYPE_CODE": "14", "URL": "https://www.grantregional.com/" }, "geometry": { "type": "Point", "coordinates": [ -90.70889, 42.84362 ] } },
{ "type": "Feature", "properties": { "OBJECTID": 178, "FACILITY_INTERNAL_ID": 6069, "ADDRESS": "1032 E Sumner St", "ADDRESS_2": null, "CITY": "Hartford", "STATE": "WI", "ZIP": 53027, "ZIP_4": 1608, "LAT": 43.318398, "LON": -88.362714, "STATE_FIPS": 55, "COUNTY": "Washington", "COUNTY_FIPS": 55131, "TYPE_DESC": "HOSPITAL", "SUB_TYPE_DESC": "SHORT TERM", "WI_LICENSE_NUM": 195, "ASPEN_FACILITY_ID": "HSPLACU40", "MEDICARE_ID": "520038", "ALIS_NAME": "AURORA MEDICAL CTR WASHINGTON COUNTY", "WITRAC_NAME": "Aurora Med Ctr-Wash Cty", "NAME": "Aurora Medical Center in Washington County", "TYPE_CODE": "1", "FACILITY_TYPE_CODE": "11", "URL": "https://www.aurorahealthcare.org/locations/hospital/aurora-medical-center-in-washington-county" }, "geometry": { "type": "Point", "coordinates": [ -88.362714, 43.318398 ] } },
{ "type": "Feature", "properties": { "OBJECTID": 179, "FACILITY_INTERNAL_ID": 6070, "ADDRESS": "11040 N State Road 77", "ADDRESS_2": null, "CITY": "Hayward", "STATE": "WI", "ZIP": 54843, "ZIP_4": 3606, "LAT": 46.034747, "LON": -91.4861, "STATE_FIPS": 55, "COUNTY": "Sawyer", "COUNTY_FIPS": 55113, "TYPE_DESC": "HOSPITAL", "SUB_TYPE_DESC": "CRITICAL ACCESS HOSPITALS", "WI_LICENSE_NUM": 1040, "ASPEN_FACILITY_ID": "HSPLACU41", "MEDICARE_ID": "521336", "ALIS_NAME": "HAYWARD AREA MEMORIAL HOSPITAL", "WITRAC_NAME": "Hayward Area Memorial Hospital", "NAME": "Hayward Area Memorial Hospital", "TYPE_CODE": "1", "FACILITY_TYPE_CODE": "14", "URL": "https://haywardmemorialhospital.com/" }, "geometry": { "type": "Point", "coordinates": [ -91.4861, 46.034747 ] } },
{ "type": "Feature", "properties": { "OBJECTID": 180, "FACILITY_INTERNAL_ID": 6071, "ADDRESS": "1050 Division St", "ADDRESS_2": null, "CITY": "Mauston", "STATE": "WI", "ZIP": 53948, "ZIP_4": 1931, "LAT": 43.78297, "LON": -90.075462, "STATE_FIPS": 55, "COUNTY": "Juneau", "COUNTY_FIPS": 55057, "TYPE_DESC": "HOSPITAL", "SUB_TYPE_DESC": "SHORT TERM", "WI_LICENSE_NUM": 134, "ASPEN_FACILITY_ID": "HSPLACU42", "MEDICARE_ID": "520109", "ALIS_NAME": "MILE BLUFF MEDICAL CENTER", "WITRAC_NAME": "Mile Bluff Medical Center", "NAME": "Mile Bluff Medical Center", "TYPE_CODE": "1", "FACILITY_TYPE_CODE": "11", "URL": "https://www.milebluff.com/" }, "geometry": { "type": "Point", "coordinates": [ -90.075462, 43.78297 ] } },
{ "type": "Feature", "properties": { "OBJECTID": 181, "FACILITY_INTERNAL_ID": 6072, "ADDRESS": "535 Hospital Rd", "ADDRESS_2": null, "CITY": "New Richmond", "STATE": "WI", "ZIP": 54017, "ZIP_4": 1449, "LAT": 45.117865, "LON": -92.555282, "STATE_FIPS": 55, "COUNTY": "Saint Croix", "COUNTY_FIPS": 55109, "TYPE_DESC": "HOSPITAL", "SUB_TYPE_DESC": "CRITICAL ACCESS HOSPITALS", "WI_LICENSE_NUM": 1050, "ASPEN_FACILITY_ID": "HSPLACU43", "MEDICARE_ID": "521345", "ALIS_NAME": "WESTFIELDS HOSPITAL AND CLINIC", "WITRAC_NAME": "Westfields Hospital", "NAME": "Westfields Hospital & Clinic", "TYPE_CODE": "1", "FACILITY_TYPE_CODE": "14", "URL": "https://www.westfieldshospital.com/" }, "geometry": { "type": "Point", "coordinates": [ -92.555282, 45.117865 ] } },
{ "type": "Feature", "properties": { "OBJECTID": 182, "FACILITY_INTERNAL_ID": 6073, "ADDRESS": "2300 Western Ave", "ADDRESS_2": null, "CITY": "Manitowoc", "STATE": "WI", "ZIP": 54221, "ZIP_4": 3712, "LAT": 44.09499, "LON": -87.67665, "STATE_FIPS": 55, "COUNTY": "Manitowoc", "COUNTY_FIPS": 55071, "TYPE_DESC": "HOSPITAL", "SUB_TYPE_DESC": "SHORT TERM", "WI_LICENSE_NUM": 7, "ASPEN_FACILITY_ID": "HSPLACU44", "MEDICARE_ID": "520107", "ALIS_NAME": "HOLY FAMILY MEMORIAL", "WITRAC_NAME": "Holy Family Memorial Hospital", "NAME": "Holy Family Memorial Hospital", "TYPE_CODE": "1", "FACILITY_TYPE_CODE": "11", "URL": "https://www.hfmhealth.org/" }, "geometry": { "type": "Point", "coordinates": [ -87.67665, 44.09499 ] } },
{ "type": "Feature", "properties": { "OBJECTID": 183, "FACILITY_INTERNAL_ID": 6074, "ADDRESS": "405 Stageline Rd", "ADDRESS_2": null, "CITY": "Hudson", "STATE": "WI", "ZIP": 54016, "ZIP_4": 7848, "LAT": 44.96118, "LON": -92.71737, "STATE_FIPS": 55, "COUNTY": "Saint Croix", "COUNTY_FIPS": 55109, "TYPE_DESC": "HOSPITAL", "SUB_TYPE_DESC": "CRITICAL ACCESS HOSPITALS", "WI_LICENSE_NUM": 1039, "ASPEN_FACILITY_ID": "HSPLACU46", "MEDICARE_ID": "521335", "ALIS_NAME": "HUDSON HOSPITAL & CLINIC", "WITRAC_NAME": "Hudson Hospital & Clinics", "NAME": "Hudson Hospital & Clinics", "TYPE_CODE": "1", "FACILITY_TYPE_CODE": "14", "URL": "http://www.hudsonhospital.org/" }, "geometry": { "type": "Point", "coordinates": [ -92.71737, 44.96118 ] } },
{ "type": "Feature", "properties": { "OBJECTID": 184, "FACILITY_INTERNAL_ID": 6075, "ADDRESS": "113 4th Ave", "ADDRESS_2": null, "CITY": "Shell Lake", "STATE": "WI", "ZIP": 54871, "ZIP_4": 4457, "LAT": 45.742335, "LON": -91.926491, "STATE_FIPS": 55, "COUNTY": "Washburn", "COUNTY_FIPS": 55129, "TYPE_DESC": "HOSPITAL", "SUB_TYPE_DESC": "CRITICAL ACCESS HOSPITALS", "WI_LICENSE_NUM": 1047, "ASPEN_FACILITY_ID": "HSPLACU47", "MEDICARE_ID": "521342", "ALIS_NAME": "INDIANHEAD MEDICAL CENTER SHELL LAKE", "WITRAC_NAME": "Indianhead Medical Center Shell Lake", "NAME": "Indianhead Medical Center", "TYPE_CODE": "1", "FACILITY_TYPE_CODE": "14", "URL": "https://indianheadmedicalcenter.com/" }, "geometry": { "type": "Point", "coordinates": [ -91.926491, 45.742335 ] } },
{ "type": "Feature", "properties": { "OBJECTID": 185, "FACILITY_INTERNAL_ID": 6076, "ADDRESS": "6308 8th Ave", "ADDRESS_2": null, "CITY": "Kenosha", "STATE": "WI", "ZIP": 53143, "ZIP_4": 5031, "LAT": 42.57751, "LON": -87.8204, "STATE_FIPS": 55, "COUNTY": "Kenosha", "COUNTY_FIPS": 55059, "TYPE_DESC": "HOSPITAL", "SUB_TYPE_DESC": "SHORT TERM", "WI_LICENSE_NUM": 22, "ASPEN_FACILITY_ID": "HSPLACU48", "MEDICARE_ID": "520021", "ALIS_NAME": "FROEDTERT SOUTH - KENOSHA MEDICAL CENTER", "WITRAC_NAME": "Froedtert South – Kenosha Medical Center", "NAME": "Kenosha Medical Center Campus", "TYPE_CODE": "1", "FACILITY_TYPE_CODE": "11", "URL": "https://www.froedtert.com/locations/hospital/kenosha-medical-center-campus" }, "geometry": { "type": "Point", "coordinates": [ -87.8204, 42.57751 ] } },
{ "type": "Feature", "properties": { "OBJECTID": 186, "FACILITY_INTERNAL_ID": 6077, "ADDRESS": "W3985 County Road Nn", "ADDRESS_2": null, "CITY": "Elkhorn", "STATE": "WI", "ZIP": 53121, "ZIP_4": 4337, "LAT": 42.661889, "LON": -88.496246, "STATE_FIPS": 55, "COUNTY": "Walworth", "COUNTY_FIPS": 55127, "TYPE_DESC": "HOSPITAL", "SUB_TYPE_DESC": "SHORT TERM", "WI_LICENSE_NUM": 132, "ASPEN_FACILITY_ID": "HSPLACU51", "MEDICARE_ID": "520102", "ALIS_NAME": "AURORA LAKELAND MEDICAL CENTER", "WITRAC_NAME": "Aurora Lakeland Medical Center", "NAME": "Aurora Lakeland Medical Center", "TYPE_CODE": "1", "FACILITY_TYPE_CODE": "11", "URL": "https://www.aurorahealthcare.org/locations/hospital/aurora-lakeland-medical-center" }, "geometry": { "type": "Point", "coordinates": [ -88.496246, 42.661889 ] } },
{ "type": "Feature", "properties": { "OBJECTID": 187, "FACILITY_INTERNAL_ID": 6093, "ADDRESS": "1700 W Stout St", "ADDRESS_2": null, "CITY": "Rice Lake", "STATE": "WI", "ZIP": 54868, "ZIP_4": 5000, "LAT": 45.50651, "LON": -91.758819, "STATE_FIPS": 55, "COUNTY": "Barron", "COUNTY_FIPS": 55005, "TYPE_DESC": "HOSPITAL", "SUB_TYPE_DESC": "SHORT TERM", "WI_LICENSE_NUM": 82, "ASPEN_FACILITY_ID": "HSPLACU52", "MEDICARE_ID": "520011", "ALIS_NAME": "MARSHFIELD MEDICAL CENTER - RICE LAKE", "WITRAC_NAME": "Marshfield Med Ctr-Rice Lake/Lakeview", "NAME": "Rice Lake - Marshfield Medical Center", "TYPE_CODE": "1", "FACILITY_TYPE_CODE": "11", "URL": "https://www.marshfieldclinic.org/locations/centers/Rice%20Lake%20-%20Marshfield%20Medical%20Center/?TermStoreId=0aed18be-c6b9-4c58-bbc4-044ae05f0fcb&TermSetId=ce4edc81-7e19-493b-8cd0-9cf1eef83a06&TermId=25102f70-3770-47e5-8a1f-87cee749ea34" }, "geometry": { "type": "Point", "coordinates": [ -91.758819, 45.50651 ] } },
{ "type": "Feature", "properties": { "OBJECTID": 188, "FACILITY_INTERNAL_ID": 6095, "ADDRESS": "112 E 5th Ave", "ADDRESS_2": null, "CITY": "Antigo", "STATE": "WI", "ZIP": 54409, "ZIP_4": 2710, "LAT": 45.141908, "LON": -89.139374, "STATE_FIPS": 55, "COUNTY": "Langlade", "COUNTY_FIPS": 55067, "TYPE_DESC": "HOSPITAL", "SUB_TYPE_DESC": "CRITICAL ACCESS HOSPITALS", "WI_LICENSE_NUM": 1055, "ASPEN_FACILITY_ID": "HSPLACU54", "MEDICARE_ID": "521350", "ALIS_NAME": "ASPIRUS LANGLADE HOSPITAL", "WITRAC_NAME": "Aspirus Langlade Hospital", "NAME": "Aspirus Langlade Hospital", "TYPE_CODE": "1", "FACILITY_TYPE_CODE": "14", "URL": "https://www.aspirus.org/find-a-location/aspirus-langlade-hospital-283" }, "geometry": { "type": "Point", "coordinates": [ -89.139374, 45.141908 ] } },
{ "type": "Feature", "properties": { "OBJECTID": 189, "FACILITY_INTERNAL_ID": 6096, "ADDRESS": "1221 Whipple St", "ADDRESS_2": null, "CITY": "Eau Claire", "STATE": "WI", "ZIP": 54703, "ZIP_4": 5270, "LAT": 44.813192, "LON": -91.511924, "STATE_FIPS": 55, "COUNTY": "Eau Claire", "COUNTY_FIPS": 55035, "TYPE_DESC": "HOSPITAL", "SUB_TYPE_DESC": "SHORT TERM", "WI_LICENSE_NUM": 48, "ASPEN_FACILITY_ID": "HSPLACU55", "MEDICARE_ID": "520070", "ALIS_NAME": "MAYO CLINIC HEALTH SYSTEM IN EAU CLAIRE", "WITRAC_NAME": "Mayo Clinic Health System - Eau Claire", "NAME": "Mayo Clinic Health System Eau Claire", "TYPE_CODE": "1", "FACILITY_TYPE_CODE": "11", "URL": "https://mayoclinichealthsystem.org/locations/eau-claire" }, "geometry": { "type": "Point", "coordinates": [ -91.511924, 44.813192 ] } },
{ "type": "Feature", "properties": { "OBJECTID": 190, "FACILITY_INTERNAL_ID": 6097, "ADDRESS": "11101 N Sherman Rd", "ADDRESS_2": null, "CITY": "Edgerton", "STATE": "WI", "ZIP": 53534, "ZIP_4": 9002, "LAT": 42.834679, "LON": -89.044186, "STATE_FIPS": 55, "COUNTY": "Rock", "COUNTY_FIPS": 55105, "TYPE_DESC": "HOSPITAL", "SUB_TYPE_DESC": "CRITICAL ACCESS HOSPITALS", "WI_LICENSE_NUM": 1022, "ASPEN_FACILITY_ID": "HSPLACU56", "MEDICARE_ID": "521319", "ALIS_NAME": "EDGERTON HOSPITAL AND HEALTH SERVICES", "WITRAC_NAME": "Edgerton Hospital and Health Services", "NAME": "Edgerton Hospital and Health Services", "TYPE_CODE": "1", "FACILITY_TYPE_CODE": "14", "URL": "https://www.edgertonhospital.com/" }, "geometry": { "type": "Point", "coordinates": [ -89.044186, 42.834679 ] } },
{ "type": "Feature", "properties": { "OBJECTID": 191, "FACILITY_INTERNAL_ID": 6098, "ADDRESS": "791 Summit Ave", "ADDRESS_2": null, "CITY": "Oconomowoc", "STATE": "WI", "ZIP": 53066, "ZIP_4": 3844, "LAT": 43.100171, "LON": -88.486844, "STATE_FIPS": 55, "COUNTY": "Waukesha", "COUNTY_FIPS": 55133, "TYPE_DESC": "HOSPITAL", "SUB_TYPE_DESC": "SHORT TERM", "WI_LICENSE_NUM": 113, "ASPEN_FACILITY_ID": "HSPLACU58", "MEDICARE_ID": "520062", "ALIS_NAME": "OCONOMOWOC MEMORIAL HOSPITAL", "WITRAC_NAME": "Oconomowoc Memorial Hospital", "NAME": "ProHealth Oconomowoc Memorial Hospital", "TYPE_CODE": "1", "FACILITY_TYPE_CODE": "11", "URL": "http://www.prohealthcare.org/facility-oconomowoc-prohealth-oconomowoc-memorial-hospital" }, "geometry": { "type": "Point", "coordinates": [ -88.486844, 43.100171 ] } },
{ "type": "Feature", "properties": { "OBJECTID": 192, "FACILITY_INTERNAL_ID": 6099, "ADDRESS": "252 McHenry St", "ADDRESS_2": null, "CITY": "Burlington", "STATE": "WI", "ZIP": 53105, "ZIP_4": 1828, "LAT": 42.672981, "LON": -88.281014, "STATE_FIPS": 55, "COUNTY": "Racine", "COUNTY_FIPS": 55101, "TYPE_DESC": "HOSPITAL", "SUB_TYPE_DESC": "SHORT TERM", "WI_LICENSE_NUM": 14, "ASPEN_FACILITY_ID": "HSPLACU59", "MEDICARE_ID": "520059", "ALIS_NAME": "AURORA MEDICAL CENTER BURLINGTON", "WITRAC_NAME": "Aurora Medical Center Burlington", "NAME": "Aurora Medical Center in Burlington", "TYPE_CODE": "1", "FACILITY_TYPE_CODE": "11", "URL": "https://www.aurorahealthcare.org/locations/hospital/aurora-medical-center-burlington-252-mchenry-st" }, "geometry": { "type": "Point", "coordinates": [ -88.281014, 42.672981 ] } },
{ "type": "Feature", "properties": { "OBJECTID": 193, "FACILITY_INTERNAL_ID": 6100, "ADDRESS": "800 Compassion Way", "ADDRESS_2": null, "CITY": "Dodgeville", "STATE": "WI", "ZIP": 53533, "ZIP_4": 1956, "LAT": 42.950962, "LON": -90.129011, "STATE_FIPS": 55, "COUNTY": "Iowa", "COUNTY_FIPS": 55049, "TYPE_DESC": "HOSPITAL", "SUB_TYPE_DESC": "CRITICAL ACCESS HOSPITALS", "WI_LICENSE_NUM": 1056, "ASPEN_FACILITY_ID": "HSPLACU60", "MEDICARE_ID": "521352", "ALIS_NAME": "UPLAND HILLS HEALTH", "WITRAC_NAME": "Upland Hills Health", "NAME": "Upland Hills Health", "TYPE_CODE": "1", "FACILITY_TYPE_CODE": "14", "URL": "https://www.uplandhillshealth.org/" }, "geometry": { "type": "Point", "coordinates": [ -90.129011, 42.950962 ] } },
{ "type": "Feature", "properties": { "OBJECTID": 194, "FACILITY_INTERNAL_ID": 6101, "ADDRESS": "800 Clay St", "ADDRESS_2": null, "CITY": "Darlington", "STATE": "WI", "ZIP": 53530, "ZIP_4": 1228, "LAT": 42.683989, "LON": -90.110089, "STATE_FIPS": 55, "COUNTY": "Lafayette", "COUNTY_FIPS": 55065, "TYPE_DESC": "HOSPITAL", "SUB_TYPE_DESC": "CRITICAL ACCESS HOSPITALS", "WI_LICENSE_NUM": 1015, "ASPEN_FACILITY_ID": "HSPLACU61", "MEDICARE_ID": "521312", "ALIS_NAME": "MEMORIAL HOSPITAL OF LAFAYETTE COUNTY", "WITRAC_NAME": "Memorial Hospital of Lafayette County", "NAME": "Memorial Hospital of Lafayette County", "TYPE_CODE": "1", "FACILITY_TYPE_CODE": "14", "URL": "https://www.memorialhospitaloflafayettecounty.org/" }, "geometry": { "type": "Point", "coordinates": [ -90.110089, 42.683989 ] } },
{ "type": "Feature", "properties": { "OBJECTID": 195, "FACILITY_INTERNAL_ID": 6102, "ADDRESS": "1615 Maple Ln", "ADDRESS_2": null, "CITY": "Ashland", "STATE": "WI", "ZIP": 54806, "ZIP_4": 3610, "LAT": 46.568498, "LON": -90.888473, "STATE_FIPS": 55, "COUNTY": "Ashland", "COUNTY_FIPS": 55003, "TYPE_DESC": "HOSPITAL", "SUB_TYPE_DESC": "CRITICAL ACCESS HOSPITALS", "WI_LICENSE_NUM": 1065, "ASPEN_FACILITY_ID": "HSPLACU63", "MEDICARE_ID": "521359", "ALIS_NAME": "MEMORIAL MEDICAL CENTER", "WITRAC_NAME": "Memorial Medical Center - Ashland", "NAME": "Memorial Medical Center - Ashland", "TYPE_CODE": "1", "FACILITY_TYPE_CODE": "14", "URL": "https://ashlandmmc.com/" }, "geometry": { "type": "Point", "coordinates": [ -90.888473, 46.568498 ] } },
{ "type": "Feature", "properties": { "OBJECTID": 196, "FACILITY_INTERNAL_ID": 6103, "ADDRESS": "2005 5th St", "ADDRESS_2": null, "CITY": "Monroe", "STATE": "WI", "ZIP": 53566, "ZIP_4": 1546, "LAT": 42.608515, "LON": -89.634426, "STATE_FIPS": 55, "COUNTY": "Green", "COUNTY_FIPS": 55045, "TYPE_DESC": "HOSPITAL", "SUB_TYPE_DESC": "SHORT TERM", "WI_LICENSE_NUM": 56, "ASPEN_FACILITY_ID": "HSPLACU67", "MEDICARE_ID": "520028", "ALIS_NAME": "THE MONROE CLINIC", "WITRAC_NAME": "Monroe Clinic", "NAME": "Monroe Clinic", "TYPE_CODE": "1", "FACILITY_TYPE_CODE": "11", "URL": "https://www.monroeclinic.org/" }, "geometry": { "type": "Point", "coordinates": [ -89.634426, 42.608515 ] } },
{ "type": "Feature", "properties": { "OBJECTID": 197, "FACILITY_INTERNAL_ID": 6104, "ADDRESS": "2321 Stout Rd", "ADDRESS_2": null, "CITY": "Menomonie", "STATE": "WI", "ZIP": 54751, "ZIP_4": 7003, "LAT": 44.883234, "LON": -91.90087, "STATE_FIPS": 55, "COUNTY": "Dunn", "COUNTY_FIPS": 55033, "TYPE_DESC": "HOSPITAL", "SUB_TYPE_DESC": "CRITICAL ACCESS HOSPITALS", "WI_LICENSE_NUM": 1044, "ASPEN_FACILITY_ID": "HSPLACU68", "MEDICARE_ID": "521340", "ALIS_NAME": "MAYO CLINIC HEALTH SYSTEM-RED CEDAR", "WITRAC_NAME": "Mayo Clinic Health System - Red Cedar", "NAME": "Mayo Clinic Health System – Red Cedar in Menomonie", "TYPE_CODE": "1", "FACILITY_TYPE_CODE": "14", "URL": "https://mayoclinichealthsystem.org/locations/menomonie" }, "geometry": { "type": "Point", "coordinates": [ -91.90087, 44.883234 ] } },
{ "type": "Feature", "properties": { "OBJECTID": 198, "FACILITY_INTERNAL_ID": 6105, "ADDRESS": "1405 Mill St", "ADDRESS_2": null, "CITY": "New London", "STATE": "WI", "ZIP": 54961, "ZIP_4": 2155, "LAT": 44.381136, "LON": -88.733734, "STATE_FIPS": 55, "COUNTY": "Outagamie", "COUNTY_FIPS": 55087, "TYPE_DESC": "HOSPITAL", "SUB_TYPE_DESC": "CRITICAL ACCESS HOSPITALS", "WI_LICENSE_NUM": 1029, "ASPEN_FACILITY_ID": "HSPLACU69", "MEDICARE_ID": "521326", "ALIS_NAME": "THEDACARE MEDICAL CENTER NEW LONDON", "WITRAC_NAME": "ThedaCare Med Center - New London", "NAME": "ThedaCare Medical Center-New London", "TYPE_CODE": "1", "FACILITY_TYPE_CODE": "14", "URL": "https://www.thedacare.org/Hospitals-and-Clinics/ThedaCare-Medical-Center-New-London.aspx" }, "geometry": { "type": "Point", "coordinates": [ -88.733734, 44.381136 ] } },
{ "type": "Feature", "properties": { "OBJECTID": 199, "FACILITY_INTERNAL_ID": 6107, "ADDRESS": "37868 US Highway 18", "ADDRESS_2": null, "CITY": "Prairie Du Chien", "STATE": "WI", "ZIP": 53821, "ZIP_4": 8416, "LAT": 43.021622, "LON": -91.11314, "STATE_FIPS": 55, "COUNTY": "Crawford", "COUNTY_FIPS": 55023, "TYPE_DESC": "HOSPITAL", "SUB_TYPE_DESC": "CRITICAL ACCESS HOSPITALS", "WI_LICENSE_NUM": 1033, "ASPEN_FACILITY_ID": "HSPLACU71", "MEDICARE_ID": "521330", "ALIS_NAME": "CROSSING RIVERS HEALTH MEDICAL CENTER", "WITRAC_NAME": "Crossing Rivers Health", "NAME": "Crossing Rivers Health", "TYPE_CODE": "1", "FACILITY_TYPE_CODE": "14", "URL": "https://www.crossingrivers.org/" }, "geometry": { "type": "Point", "coordinates": [ -91.11314, 43.021622 ] } },
{ "type": "Feature", "properties": { "OBJECTID": 200, "FACILITY_INTERNAL_ID": 6108, "ADDRESS": "2000 N Dewey Ave", "ADDRESS_2": null, "CITY": "Reedsburg", "STATE": "WI", "ZIP": 53959, "ZIP_4": 1049, "LAT": 43.549629, "LON": -89.993232, "STATE_FIPS": 55, "COUNTY": "Sauk", "COUNTY_FIPS": 55111, "TYPE_DESC": "HOSPITAL", "SUB_TYPE_DESC": "CRITICAL ACCESS HOSPITALS", "WI_LICENSE_NUM": 1057, "ASPEN_FACILITY_ID": "HSPLACU72", "MEDICARE_ID": "521351", "ALIS_NAME": "REEDSBURG AREA MEDICAL CENTER", "WITRAC_NAME": "Reedsburg Area Medical Center", "NAME": "Reedsburg Area Medical Center", "TYPE_CODE": "1", "FACILITY_TYPE_CODE": "14", "URL": "https://www.ramchealth.com/" }, "geometry": { "type": "Point", "coordinates": [ -89.993232, 43.549629 ] } },
{ "type": "Feature", "properties": { "OBJECTID": 201, "FACILITY_INTERNAL_ID": 6109, "ADDRESS": "333 E 2nd St", "ADDRESS_2": null, "CITY": "Richland Center", "STATE": "WI", "ZIP": 53581, "ZIP_4": 1914, "LAT": 43.338966, "LON": -90.382229, "STATE_FIPS": 55, "COUNTY": "Richland", "COUNTY_FIPS": 55103, "TYPE_DESC": "HOSPITAL", "SUB_TYPE_DESC": "CRITICAL ACCESS HOSPITALS", "WI_LICENSE_NUM": 1045, "ASPEN_FACILITY_ID": "HSPLACU73", "MEDICARE_ID": "521341", "ALIS_NAME": "RICHLAND HOSPITAL", "WITRAC_NAME": "Richland Hospital", "NAME": "Richland Hospital", "TYPE_CODE": "1", "FACILITY_TYPE_CODE": "14", "URL": "http://www.richlandhospital.com/" }, "geometry": { "type": "Point", "coordinates": [ -90.382229, 43.338966 ] } },
{ "type": "Feature", "properties": { "OBJECTID": 202, "FACILITY_INTERNAL_ID": 6110, "ADDRESS": "845 Parkside St", "ADDRESS_2": null, "CITY": "Ripon", "STATE": "WI", "ZIP": 54971, "ZIP_4": 8505, "LAT": 43.834308, "LON": -88.818008, "STATE_FIPS": 55, "COUNTY": "Fond Du Lac", "COUNTY_FIPS": 55039, "TYPE_DESC": "HOSPITAL", "SUB_TYPE_DESC": "CRITICAL ACCESS HOSPITALS", "WI_LICENSE_NUM": 1024, "ASPEN_FACILITY_ID": "HSPLACU74", "MEDICARE_ID": "521321", "ALIS_NAME": "RIPON MEDICAL CENTER", "WITRAC_NAME": "Ripon Medical Center, Inc.", "NAME": "Ripon Medical Center", "TYPE_CODE": "1", "FACILITY_TYPE_CODE": "14", "URL": "https://www.agnesian.com/locations/ripon-medical-center" }, "geometry": { "type": "Point", "coordinates": [ -88.818008, 43.834308 ] } },
{ "type": "Feature", "properties": { "OBJECTID": 203, "FACILITY_INTERNAL_ID": 6111, "ADDRESS": "1629 E Division St", "ADDRESS_2": null, "CITY": "River Falls", "STATE": "WI", "ZIP": 54022, "ZIP_4": 1571, "LAT": 44.864539, "LON": -92.602777, "STATE_FIPS": 55, "COUNTY": "Saint Croix", "COUNTY_FIPS": 55109, "TYPE_DESC": "HOSPITAL", "SUB_TYPE_DESC": "CRITICAL ACCESS HOSPITALS", "WI_LICENSE_NUM": 1054, "ASPEN_FACILITY_ID": "HSPLACU75", "MEDICARE_ID": "521349", "ALIS_NAME": "RIVER FALLS AREA HOSPITAL", "WITRAC_NAME": "River Falls Area Hospital", "NAME": "River Falls Area Hospital", "TYPE_CODE": "1", "FACILITY_TYPE_CODE": "14", "URL": "https://www.allinahealth.org/river-falls-area-hospital" }, "geometry": { "type": "Point", "coordinates": [ -92.602777, 44.864539 ] } },
{ "type": "Feature", "properties": { "OBJECTID": 204, "FACILITY_INTERNAL_ID": 6112, "ADDRESS": "410 Dewey St", "ADDRESS_2": null, "CITY": "Wisconsin Rapids", "STATE": "WI", "ZIP": 54495, "ZIP_4": 4715, "LAT": 44.381749, "LON": -89.829937, "STATE_FIPS": 55, "COUNTY": "Wood", "COUNTY_FIPS": 55141, "TYPE_DESC": "HOSPITAL", "SUB_TYPE_DESC": "SHORT TERM", "WI_LICENSE_NUM": 11, "ASPEN_FACILITY_ID": "HSPLACU77", "MEDICARE_ID": "520033", "ALIS_NAME": "ASPIRUS RIVERVIEW HOSPITAL & CLINICS INC", "WITRAC_NAME": "Aspirus Riverview Hospital & Clinics", "NAME": "Aspirus Riverview Hospital", "TYPE_CODE": "1", "FACILITY_TYPE_CODE": "11", "URL": "https://www.aspirus.org/find-a-location/aspirus-riverview-hospital-437" }, "geometry": { "type": "Point", "coordinates": [ -89.829937, 44.381749 ] } },
{ "type": "Feature", "properties": { "OBJECTID": 205, "FACILITY_INTERNAL_ID": 6113, "ADDRESS": "900 College Ave W", "ADDRESS_2": null, "CITY": "Ladysmith", "STATE": "WI", "ZIP": 54848, "ZIP_4": 2116, "LAT": 45.454741, "LON": -91.110022, "STATE_FIPS": 55, "COUNTY": "Rusk", "COUNTY_FIPS": 55107, "TYPE_DESC": "HOSPITAL", "SUB_TYPE_DESC": "CRITICAL ACCESS HOSPITALS", "WI_LICENSE_NUM": 1030, "ASPEN_FACILITY_ID": "HSPLACU78", "MEDICARE_ID": "521328", "ALIS_NAME": "MARSHFIELD MEDICAL CENTER - LADYSMITH", "WITRAC_NAME": "Marshfield Medical Center-Ladysmith/Rusk", "NAME": "Marshfield Medical Center - Ladysmith", "TYPE_CODE": "1", "FACILITY_TYPE_CODE": "14", "URL": "http://www.ruskhospital.org/" }, "geometry": { "type": "Point", "coordinates": [ -91.110022, 45.454741 ] } },
{ "type": "Feature", "properties": { "OBJECTID": 206, "FACILITY_INTERNAL_ID": 6114, "ADDRESS": "900 W Clairemont Ave", "ADDRESS_2": null, "CITY": "Eau Claire", "STATE": "WI", "ZIP": 54701, "ZIP_4": 6122, "LAT": 44.79499, "LON": -91.51089, "STATE_FIPS": 55, "COUNTY": "Eau Claire", "COUNTY_FIPS": 55035, "TYPE_DESC": "HOSPITAL", "SUB_TYPE_DESC": "SHORT TERM", "WI_LICENSE_NUM": 17, "ASPEN_FACILITY_ID": "HSPLACU79", "MEDICARE_ID": "520013", "ALIS_NAME": "SACRED HEART HOSPITAL", "WITRAC_NAME": "Sacred Heart Hospital - Eau Claire", "NAME": "HSHS Sacred Heart Hospital", "TYPE_CODE": "1", "FACILITY_TYPE_CODE": "11", "URL": "https://www.sacredhearteauclaire.org/" }, "geometry": { "type": "Point", "coordinates": [ -91.51089, 44.79499 ] } },
{ "type": "Feature", "properties": { "OBJECTID": 207, "FACILITY_INTERNAL_ID": 6115, "ADDRESS": "401 W Mohawk Dr Ste 100", "ADDRESS_2": null, "CITY": "Tomahawk", "STATE": "WI", "ZIP": 54487, "ZIP_4": 2273, "LAT": 45.486395, "LON": -89.733977, "STATE_FIPS": 55, "COUNTY": "Lincoln", "COUNTY_FIPS": 55069, "TYPE_DESC": "HOSPITAL", "SUB_TYPE_DESC": "CRITICAL ACCESS HOSPITALS", "WI_LICENSE_NUM": 1016, "ASPEN_FACILITY_ID": "HSPLACU80", "MEDICARE_ID": "521313", "ALIS_NAME": "ASCENSION SACRED HEART HOSPITAL", "WITRAC_NAME": "Ascension Sacred Heart Hospital ", "NAME": "Ascension Sacred Heart Hospital ", "TYPE_CODE": "1", "FACILITY_TYPE_CODE": "14", "URL": "https://healthcare.ascension.org/Locations/Wisconsin/WIAPM/Tomahawk-Sacred-Heart-Hospital" }, "geometry": { "type": "Point", "coordinates": [ -89.733977, 45.486395 ] } },
{ "type": "Feature", "properties": { "OBJECTID": 208, "FACILITY_INTERNAL_ID": 6119, "ADDRESS": "260 26th St", "ADDRESS_2": null, "CITY": "Prairie Du Sac", "STATE": "WI", "ZIP": 53578, "ZIP_4": 2203, "LAT": 43.286747, "LON": -89.752721, "STATE_FIPS": 55, "COUNTY": "Sauk", "COUNTY_FIPS": 55111, "TYPE_DESC": "HOSPITAL", "SUB_TYPE_DESC": "SHORT TERM", "WI_LICENSE_NUM": 122, "ASPEN_FACILITY_ID": "HSPLACU84", "MEDICARE_ID": "520095", "ALIS_NAME": "SAUK PRAIRIE HOSPITAL", "WITRAC_NAME": "Sauk Prairie Hospital", "NAME": "Sauk Prairie Hospital", "TYPE_CODE": "1", "FACILITY_TYPE_CODE": "11", "URL": "https://www.saukprairiehealthcare.org/" }, "geometry": { "type": "Point", "coordinates": [ -89.752721, 43.286747 ] } },
{ "type": "Feature", "properties": { "OBJECTID": 209, "FACILITY_INTERNAL_ID": 6123, "ADDRESS": "1280 Chandler Dr", "ADDRESS_2": null, "CITY": "Spooner", "STATE": "WI", "ZIP": 54801, "ZIP_4": null, "LAT": 45.825625, "LON": -91.896964, "STATE_FIPS": 55, "COUNTY": "Washburn", "COUNTY_FIPS": 55129, "TYPE_DESC": "HOSPITAL", "SUB_TYPE_DESC": "CRITICAL ACCESS HOSPITALS", "WI_LICENSE_NUM": 1036, "ASPEN_FACILITY_ID": "HSPLACU91", "MEDICARE_ID": "521332", "ALIS_NAME": "SPOONER HEALTH SYSTEM", "WITRAC_NAME": "Spooner Health ", "NAME": "Spooner Health ", "TYPE_CODE": "1", "FACILITY_TYPE_CODE": "14", "URL": "https://www.spoonerhealth.com/" }, "geometry": { "type": "Point", "coordinates": [ -91.896964, 45.825625 ] } },
{ "type": "Feature", "properties": { "OBJECTID": 210, "FACILITY_INTERNAL_ID": 6124, "ADDRESS": "3500 Tower Ave", "ADDRESS_2": null, "CITY": "Superior", "STATE": "WI", "ZIP": 54880, "ZIP_4": 4491, "LAT": 46.69749, "LON": -92.10211, "STATE_FIPS": 55, "COUNTY": "Douglas", "COUNTY_FIPS": 55031, "TYPE_DESC": "HOSPITAL", "SUB_TYPE_DESC": "CRITICAL ACCESS HOSPITALS", "WI_LICENSE_NUM": 1032, "ASPEN_FACILITY_ID": "HSPLACU92", "MEDICARE_ID": "521329", "ALIS_NAME": "ESSENTIA HEALTH ST MARY'S HOSPITAL - SUPERIOR", "WITRAC_NAME": "St. Mary's Hospital of Superior", "NAME": "Essentia Health St. Mary's Hospital-Superior", "TYPE_CODE": "1", "FACILITY_TYPE_CODE": "14", "URL": "https://www.essentiahealth.org/find-facility/profile/essentia-health-st-marys-hospital-superior/" }, "geometry": { "type": "Point", "coordinates": [ -92.10211, 46.69749 ] } },
{ "type": "Feature", "properties": { "OBJECTID": 211, "FACILITY_INTERNAL_ID": 6125, "ADDRESS": "430 E Division St", "ADDRESS_2": null, "CITY": "Fond Du Lac", "STATE": "WI", "ZIP": 54935, "ZIP_4": 4560, "LAT": 43.777826, "LON": -88.43103, "STATE_FIPS": 55, "COUNTY": "Fond Du Lac", "COUNTY_FIPS": 55039, "TYPE_DESC": "HOSPITAL", "SUB_TYPE_DESC": "SHORT TERM", "WI_LICENSE_NUM": 120, "ASPEN_FACILITY_ID": "HSPLACU93", "MEDICARE_ID": "520088", "ALIS_NAME": "ST AGNES HOSPITAL", "WITRAC_NAME": "St. Agnes Hospital", "NAME": "St. Agnes Hospital", "TYPE_CODE": "1", "FACILITY_TYPE_CODE": "11", "URL": "https://www.agnesian.com/locations/st-agnes-hospital" }, "geometry": { "type": "Point", "coordinates": [ -88.43103, 43.777826 ] } },
{ "type": "Feature", "properties": { "OBJECTID": 212, "FACILITY_INTERNAL_ID": 6127, "ADDRESS": "707 14th St", "ADDRESS_2": null, "CITY": "Baraboo", "STATE": "WI", "ZIP": 53913, "ZIP_4": 1539, "LAT": 43.48131, "LON": -89.73008, "STATE_FIPS": 55, "COUNTY": "Sauk", "COUNTY_FIPS": 55111, "TYPE_DESC": "HOSPITAL", "SUB_TYPE_DESC": "SHORT TERM", "WI_LICENSE_NUM": 65, "ASPEN_FACILITY_ID": "HSPLACU95", "MEDICARE_ID": "520057", "ALIS_NAME": "SSM HEALTH ST CLARE HOSPITAL - BARABOO", "WITRAC_NAME": "St. Clare Hospital ", "NAME": "SSM Health St. Clare Hospital - Baraboo", "TYPE_CODE": "1", "FACILITY_TYPE_CODE": "11", "URL": "https://www.ssmhealth.com/locations/st-clare-hospital-baraboo" }, "geometry": { "type": "Point", "coordinates": [ -89.73008, 43.48131 ] } },
{ "type": "Feature", "properties": { "OBJECTID": 213, "FACILITY_INTERNAL_ID": 6128, "ADDRESS": "235 E State St", "ADDRESS_2": null, "CITY": "Saint Croix Falls", "STATE": "WI", "ZIP": 54024, "ZIP_4": 4117, "LAT": 45.408699, "LON": -92.6428, "STATE_FIPS": 55, "COUNTY": "Polk", "COUNTY_FIPS": 55095, "TYPE_DESC": "HOSPITAL", "SUB_TYPE_DESC": "CRITICAL ACCESS HOSPITALS", "WI_LICENSE_NUM": 1041, "ASPEN_FACILITY_ID": "HSPLACU96", "MEDICARE_ID": "521337", "ALIS_NAME": "ST CROIX REGIONAL MEDICAL CENTER", "WITRAC_NAME": "St. Croix Regional Medical Center", "NAME": "St. Croix Regional Medical Center", "TYPE_CODE": "1", "FACILITY_TYPE_CODE": "14", "URL": "https://www.scrmc.org/" }, "geometry": { "type": "Point", "coordinates": [ -92.6428, 45.408699 ] } },
{ "type": "Feature", "properties": { "OBJECTID": 214, "FACILITY_INTERNAL_ID": 6129, "ADDRESS": "3200 Pleasant Valley Rd", "ADDRESS_2": null, "CITY": "West Bend", "STATE": "WI", "ZIP": 53095, "ZIP_4": 9274, "LAT": 43.355616, "LON": -88.195033, "STATE_FIPS": 55, "COUNTY": "Washington", "COUNTY_FIPS": 55131, "TYPE_DESC": "HOSPITAL", "SUB_TYPE_DESC": "SHORT TERM", "WI_LICENSE_NUM": 44, "ASPEN_FACILITY_ID": "HSPLACU99", "MEDICARE_ID": "520063", "ALIS_NAME": "ST JOSEPHS COMMUNITY HOSPITAL OF WEST BEND", "WITRAC_NAME": "St. Joseph's Hosp - Froed&MCW", "NAME": "St. Joseph's Hospital", "TYPE_CODE": "1", "FACILITY_TYPE_CODE": "11", "URL": "https://www.froedtert.com/locations/hospital/st-josephs-hospital" }, "geometry": { "type": "Point", "coordinates": [ -88.195033, 43.355616 ] } },
{ "type": "Feature", "properties": { "OBJECTID": 215, "FACILITY_INTERNAL_ID": 6130, "ADDRESS": "5000 W Chambers St", "ADDRESS_2": null, "CITY": "Milwaukee", "STATE": "WI", "ZIP": 53210, "ZIP_4": 1650, "LAT": 43.074094, "LON": -87.976102, "STATE_FIPS": 55, "COUNTY": "Milwaukee", "COUNTY_FIPS": 55079, "TYPE_DESC": "HOSPITAL", "SUB_TYPE_DESC": "SHORT TERM", "WI_LICENSE_NUM": 30, "ASPEN_FACILITY_ID": "HSPLACU100", "MEDICARE_ID": "520136", "ALIS_NAME": "ASCENSION SE WISCONSIN HOSPITAL - ST JOSEPH CAMPUS", "WITRAC_NAME": "Ascension St Joseph Campus Milwaukee", "NAME": "Ascension SE Wisconsin Hospital - St. Joseph Campus", "TYPE_CODE": "1", "FACILITY_TYPE_CODE": "11", "URL": "https://healthcare.ascension.org/Locations/Wisconsin/WIWHE/Milwaukee-Ascension-SE-Wisconsin-Hospital-St-Joseph-Campus" }, "geometry": { "type": "Point", "coordinates": [ -87.976102, 43.074094 ] } },
{ "type": "Feature", "properties": { "OBJECTID": 216, "FACILITY_INTERNAL_ID": 6131, "ADDRESS": "2661 County Highway I", "ADDRESS_2": null, "CITY": "Chippewa Falls", "STATE": "WI", "ZIP": 54729, "ZIP_4": 5407, "LAT": 44.950192, "LON": -91.359735, "STATE_FIPS": 55, "COUNTY": "Chippewa", "COUNTY_FIPS": 55017, "TYPE_DESC": "HOSPITAL", "SUB_TYPE_DESC": "SHORT TERM", "WI_LICENSE_NUM": 15, "ASPEN_FACILITY_ID": "HSPLACU101", "MEDICARE_ID": "520017", "ALIS_NAME": "ST JOSEPHS HOSPITAL", "WITRAC_NAME": "St. Joseph's Hospital - Chippewa Falls", "NAME": "HSHS St. Joseph's Hospital", "TYPE_CODE": "1", "FACILITY_TYPE_CODE": "11", "URL": "https://www.stjoeschipfalls.org/" }, "geometry": { "type": "Point", "coordinates": [ -91.359735, 44.950192 ] } },
{ "type": "Feature", "properties": { "OBJECTID": 217, "FACILITY_INTERNAL_ID": 6136, "ADDRESS": "2900 W Oklahoma Ave", "ADDRESS_2": null, "CITY": "Milwaukee", "STATE": "WI", "ZIP": 53215, "ZIP_4": 4330, "LAT": 42.98975, "LON": -87.95074, "STATE_FIPS": 55, "COUNTY": "Milwaukee", "COUNTY_FIPS": 55079, "TYPE_DESC": "HOSPITAL", "SUB_TYPE_DESC": "SHORT TERM", "WI_LICENSE_NUM": 160, "ASPEN_FACILITY_ID": "HSPLACU108", "MEDICARE_ID": "520138", "ALIS_NAME": "AURORA ST LUKES MEDICAL CENTER", "WITRAC_NAME": "Aurora Health Care-St Luke's Medical Ctr", "NAME": "Aurora St. Luke's Medical Center of Aurora Health Care Metro, Inc.", "TYPE_CODE": "1", "FACILITY_TYPE_CODE": "11", "URL": "https://www.aurorahealthcare.org/locations/hospital/aurora-st-lukes-medical-center" }, "geometry": { "type": "Point", "coordinates": [ -87.95074, 42.98975 ] } },
{ "type": "Feature", "properties": { "OBJECTID": 218, "FACILITY_INTERNAL_ID": 6139, "ADDRESS": "1726 Shawano Ave", "ADDRESS_2": null, "CITY": "Green Bay", "STATE": "WI", "ZIP": 54303, "ZIP_4": 3216, "LAT": 44.533133, "LON": -88.065964, "STATE_FIPS": 55, "COUNTY": "Brown", "COUNTY_FIPS": 55009, "TYPE_DESC": "HOSPITAL", "SUB_TYPE_DESC": "SHORT TERM", "WI_LICENSE_NUM": 18, "ASPEN_FACILITY_ID": "HSPLACU112", "MEDICARE_ID": "520097", "ALIS_NAME": "ST MARYS HOSPITAL MEDICAL CTR", "WITRAC_NAME": "St. Mary's Med Ctr - Green Bay", "NAME": "HSHS St. Mary's Hospital Medical Center", "TYPE_CODE": "1", "FACILITY_TYPE_CODE": "11", "URL": "https://www.stmgb.org/Home/" }, "geometry": { "type": "Point", "coordinates": [ -88.065964, 44.533133 ] } },
{ "type": "Feature", "properties": { "OBJECTID": 219, "FACILITY_INTERNAL_ID": 6141, "ADDRESS": "3801 Spring St", "ADDRESS_2": null, "CITY": "Mount Pleasant", "STATE": "WI", "ZIP": 53405, "ZIP_4": 1667, "LAT": 42.73138, "LON": -87.82697, "STATE_FIPS": 55, "COUNTY": "Racine", "COUNTY_FIPS": 55101, "TYPE_DESC": "HOSPITAL", "SUB_TYPE_DESC": "SHORT TERM", "WI_LICENSE_NUM": 123, "ASPEN_FACILITY_ID": "HSPLACU116", "MEDICARE_ID": "520096", "ALIS_NAME": "ASCENSION ALL SAINTS HOSPITAL", "WITRAC_NAME": "Ascension All Saints Hospitals Spring St", "NAME": "Ascension All Saints Hospital - Spring Street Campus", "TYPE_CODE": "1", "FACILITY_TYPE_CODE": "11", "URL": "https://healthcare.ascension.org/Locations/Wisconsin/WIWHE/Racine-Ascension-All-Saints-Hospital-Spring-Street-Campus" }, "geometry": { "type": "Point", "coordinates": [ -87.82697, 42.73138 ] } },
{ "type": "Feature", "properties": { "OBJECTID": 220, "FACILITY_INTERNAL_ID": 6142, "ADDRESS": "2251 N Shore Dr", "ADDRESS_2": null, "CITY": "Rhinelander", "STATE": "WI", "ZIP": 54501, "ZIP_4": 6710, "LAT": 45.639105, "LON": -89.374952, "STATE_FIPS": 55, "COUNTY": "Oneida", "COUNTY_FIPS": 55085, "TYPE_DESC": "HOSPITAL", "SUB_TYPE_DESC": "SHORT TERM", "WI_LICENSE_NUM": 138, "ASPEN_FACILITY_ID": "HSPLACU117", "MEDICARE_ID": "520019", "ALIS_NAME": "ASCENSION ST MARYS HOSPITAL", "WITRAC_NAME": "Ascension St. Mary's Hospital", "NAME": "Ascension St. Mary's Hospital", "TYPE_CODE": "1", "FACILITY_TYPE_CODE": "11", "URL": "https://healthcare.ascension.org/Locations/Wisconsin/WIAPM/Rhinelander-Saint-Marys-Hospital" }, "geometry": { "type": "Point", "coordinates": [ -89.374952, 45.639105 ] } },
{ "type": "Feature", "properties": { "OBJECTID": 221, "FACILITY_INTERNAL_ID": 6144, "ADDRESS": "835 S Van Buren St", "ADDRESS_2": null, "CITY": "Green Bay", "STATE": "WI", "ZIP": 54301, "ZIP_4": 3526, "LAT": 44.50105, "LON": -88.01222, "STATE_FIPS": 55, "COUNTY": "Brown", "COUNTY_FIPS": 55009, "TYPE_DESC": "HOSPITAL", "SUB_TYPE_DESC": "SHORT TERM", "WI_LICENSE_NUM": 19, "ASPEN_FACILITY_ID": "HSPLACU121", "MEDICARE_ID": "520075", "ALIS_NAME": "ST VINCENT HOSPITAL", "WITRAC_NAME": "St. Vincent Hospital", "NAME": "HSHS St. Vincent Hospital", "TYPE_CODE": "1", "FACILITY_TYPE_CODE": "11", "URL": "https://www.stvincenthospital.org/Home/" }, "geometry": { "type": "Point", "coordinates": [ -88.01222, 44.50105 ] } },
{ "type": "Feature", "properties": { "OBJECTID": 222, "FACILITY_INTERNAL_ID": 6145, "ADDRESS": "900 Ridge St", "ADDRESS_2": null, "CITY": "Stoughton", "STATE": "WI", "ZIP": 53589, "ZIP_4": 1864, "LAT": 42.920696, "LON": -89.211082, "STATE_FIPS": 55, "COUNTY": "Dane", "COUNTY_FIPS": 55025, "TYPE_DESC": "HOSPITAL", "SUB_TYPE_DESC": "CRITICAL ACCESS HOSPITALS", "WI_LICENSE_NUM": 1046, "ASPEN_FACILITY_ID": "HSPLACU122", "MEDICARE_ID": "521343", "ALIS_NAME": "STOUGHTON HOSPITAL", "WITRAC_NAME": "Stoughton Hospital", "NAME": "Stoughton Hospital", "TYPE_CODE": "1", "FACILITY_TYPE_CODE": "14", "URL": "https://stoughtonhospital.com/" }, "geometry": { "type": "Point", "coordinates": [ -89.211082, 42.920696 ] } },
{ "type": "Feature", "properties": { "OBJECTID": 223, "FACILITY_INTERNAL_ID": 6146, "ADDRESS": "130 2nd St", "ADDRESS_2": null, "CITY": "Neenah", "STATE": "WI", "ZIP": 54956, "ZIP_4": 2883, "LAT": 44.187489, "LON": -88.453849, "STATE_FIPS": 55, "COUNTY": "Winnebago", "COUNTY_FIPS": 55139, "TYPE_DESC": "HOSPITAL", "SUB_TYPE_DESC": "SHORT TERM", "WI_LICENSE_NUM": 32, "ASPEN_FACILITY_ID": "HSPLACU123", "MEDICARE_ID": "520045", "ALIS_NAME": "THEDACARE REGIONAL MEDICAL CENTER - NEENAH INC", "WITRAC_NAME": "ThedaCare Med Center - Neenah", "NAME": "ThedaCare Regional Medical Center-Neenah", "TYPE_CODE": "1", "FACILITY_TYPE_CODE": "11", "URL": "https://www.thedacare.org/hospitals%20and%20clinics/thedacare-regional-medical-center-neenah.aspx" }, "geometry": { "type": "Point", "coordinates": [ -88.453849, 44.187489 ] } },
{ "type": "Feature", "properties": { "OBJECTID": 224, "FACILITY_INTERNAL_ID": 6147, "ADDRESS": "321 Butts Ave", "ADDRESS_2": null, "CITY": "Tomah", "STATE": "WI", "ZIP": 54660, "ZIP_4": 1412, "LAT": 43.98417, "LON": -90.515451, "STATE_FIPS": 55, "COUNTY": "Monroe", "COUNTY_FIPS": 55081, "TYPE_DESC": "HOSPITAL", "SUB_TYPE_DESC": "CRITICAL ACCESS HOSPITALS", "WI_LICENSE_NUM": 1023, "ASPEN_FACILITY_ID": "HSPLACU124", "MEDICARE_ID": "521320", "ALIS_NAME": "TOMAH MEMORIAL HOSPITAL", "WITRAC_NAME": "Tomah Memorial Hospital", "NAME": "Tomah Memorial Hospital", "TYPE_CODE": "1", "FACILITY_TYPE_CODE": "14", "URL": "https://www.tomahhospital.org/" }, "geometry": { "type": "Point", "coordinates": [ -90.515451, 43.98417 ] } },
{ "type": "Feature", "properties": { "OBJECTID": 225, "FACILITY_INTERNAL_ID": 6148, "ADDRESS": "18601 Lincoln St", "ADDRESS_2": null, "CITY": "Whitehall", "STATE": "WI", "ZIP": 54773, "ZIP_4": 8605, "LAT": 44.364377, "LON": -91.318744, "STATE_FIPS": 55, "COUNTY": "Trempealeau", "COUNTY_FIPS": 55121, "TYPE_DESC": "HOSPITAL", "SUB_TYPE_DESC": "CRITICAL ACCESS HOSPITALS", "WI_LICENSE_NUM": 1019, "ASPEN_FACILITY_ID": "HSPLACU125", "MEDICARE_ID": "521316", "ALIS_NAME": "GUNDERSEN TRI-COUNTY HOSPITAL AND CLINICS", "WITRAC_NAME": "Gundersen Tri County Hospital ", "NAME": "Gundersen Tri-County Hospital and Clinics", "TYPE_CODE": "1", "FACILITY_TYPE_CODE": "14", "URL": "https://www.gundersenhealth.org/tri-county/" }, "geometry": { "type": "Point", "coordinates": [ -91.318744, 44.364377 ] } },
{ "type": "Feature", "properties": { "OBJECTID": 226, "FACILITY_INTERNAL_ID": 6149, "ADDRESS": "600 Highland Ave", "ADDRESS_2": null, "CITY": "Madison", "STATE": "WI", "ZIP": 53792, "ZIP_4": 1, "LAT": 43.076334, "LON": -89.43075, "STATE_FIPS": 55, "COUNTY": "Dane", "COUNTY_FIPS": 55025, "TYPE_DESC": "HOSPITAL", "SUB_TYPE_DESC": "SHORT TERM", "WI_LICENSE_NUM": 125, "ASPEN_FACILITY_ID": "HSPLACU127", "MEDICARE_ID": "520098", "ALIS_NAME": "UNIVERSITY OF WI  HOSPITALS & CLINICS AUTHORITY", "WITRAC_NAME": "University of WI Hospital/Clinics", "NAME": "University Hospital", "TYPE_CODE": "1", "FACILITY_TYPE_CODE": "11", "URL": "https://www.uwhealth.org/findadoctor/location/170" }, "geometry": { "type": "Point", "coordinates": [ -89.43075, 43.076334 ] } },
{ "type": "Feature", "properties": { "OBJECTID": 227, "FACILITY_INTERNAL_ID": 6152, "ADDRESS": "1120 Pine St", "ADDRESS_2": null, "CITY": "Stanley", "STATE": "WI", "ZIP": 54768, "ZIP_4": 1297, "LAT": 44.953537, "LON": -90.918732, "STATE_FIPS": 55, "COUNTY": "Clark", "COUNTY_FIPS": 55019, "TYPE_DESC": "HOSPITAL", "SUB_TYPE_DESC": "CRITICAL ACCESS HOSPITALS", "WI_LICENSE_NUM": 1013, "ASPEN_FACILITY_ID": "HSPLACU131", "MEDICARE_ID": "521311", "ALIS_NAME": "ASCENSION OUR LADY OF VICTORY HOSPITAL", "WITRAC_NAME": "Ascension Our Lady of Victory Hospital", "NAME": "Ascension Our Lady of Victory Hospital", "TYPE_CODE": "1", "FACILITY_TYPE_CODE": "14", "URL": "https://healthcare.ascension.org/Locations/Wisconsin/WIAPM/Stanley-Our-Lady-of-Victory-Hospital" }, "geometry": { "type": "Point", "coordinates": [ -90.918732, 44.953537 ] } },
{ "type": "Feature", "properties": { "OBJECTID": 228, "FACILITY_INTERNAL_ID": 6153, "ADDRESS": "125 Hospital Dr", "ADDRESS_2": null, "CITY": "Watertown", "STATE": "WI", "ZIP": 53098, "ZIP_4": 3303, "LAT": 43.199754, "LON": -88.696951, "STATE_FIPS": 55, "COUNTY": "Dodge", "COUNTY_FIPS": 55027, "TYPE_DESC": "HOSPITAL", "SUB_TYPE_DESC": "SHORT TERM", "WI_LICENSE_NUM": 105, "ASPEN_FACILITY_ID": "HSPLACU132", "MEDICARE_ID": "520116", "ALIS_NAME": "WATERTOWN REGIONAL MEDICAL CENTER", "WITRAC_NAME": "Watertown Regional Medical Center", "NAME": "Watertown Regional Medical Center", "TYPE_CODE": "1", "FACILITY_TYPE_CODE": "11", "URL": "https://www.watertownregional.com/" }, "geometry": { "type": "Point", "coordinates": [ -88.696951, 43.199754 ] } },
{ "type": "Feature", "properties": { "OBJECTID": 229, "FACILITY_INTERNAL_ID": 6154, "ADDRESS": "620 W Brown St", "ADDRESS_2": null, "CITY": "Waupun", "STATE": "WI", "ZIP": 53963, "ZIP_4": 1702, "LAT": 43.631821, "LON": -88.745666, "STATE_FIPS": 55, "COUNTY": "Dodge", "COUNTY_FIPS": 55027, "TYPE_DESC": "HOSPITAL", "SUB_TYPE_DESC": "CRITICAL ACCESS HOSPITALS", "WI_LICENSE_NUM": 1031, "ASPEN_FACILITY_ID": "HSPLACU134", "MEDICARE_ID": "521327", "ALIS_NAME": "WAUPUN MEMORIAL HOSPITAL", "WITRAC_NAME": "Waupun Memorial Hospital", "NAME": "Waupun Memorial Hospital", "TYPE_CODE": "1", "FACILITY_TYPE_CODE": "14", "URL": "https://www.agnesian.com/locations/waupun-memorial-hospital" }, "geometry": { "type": "Point", "coordinates": [ -88.745666, 43.631821 ] } },
{ "type": "Feature", "properties": { "OBJECTID": 230, "FACILITY_INTERNAL_ID": 6155, "ADDRESS": "333 Pine Ridge Blvd", "ADDRESS_2": null, "CITY": "Wausau", "STATE": "WI", "ZIP": 54401, "ZIP_4": 4102, "LAT": 44.96588, "LON": -89.66825, "STATE_FIPS": 55, "COUNTY": "Marathon", "COUNTY_FIPS": 55073, "TYPE_DESC": "HOSPITAL", "SUB_TYPE_DESC": "SHORT TERM", "WI_LICENSE_NUM": 188, "ASPEN_FACILITY_ID": "HSPLACU135", "MEDICARE_ID": "520030", "ALIS_NAME": "ASPIRUS WAUSAU HOSPITAL", "WITRAC_NAME": "Aspirus Wausau Hospital, Inc.", "NAME": "Aspirus Wausau Hospital", "TYPE_CODE": "1", "FACILITY_TYPE_CODE": "11", "URL": "https://www.aspirus.org/find-a-location/aspirus-wausau-hospital-285" }, "geometry": { "type": "Point", "coordinates": [ -89.66825, 44.96588 ] } },
{ "type": "Feature", "properties": { "OBJECTID": 231, "FACILITY_INTERNAL_ID": 7925, "ADDRESS": "310 W Main St", "ADDRESS_2": null, "CITY": "Sparta", "STATE": "WI", "ZIP": 54656, "ZIP_4": 2170, "LAT": 43.944601, "LON": -90.81411, "STATE_FIPS": 55, "COUNTY": "Monroe", "COUNTY_FIPS": 55081, "TYPE_DESC": "HOSPITAL", "SUB_TYPE_DESC": "CRITICAL ACCESS HOSPITALS", "WI_LICENSE_NUM": 1009, "ASPEN_FACILITY_ID": "HSPLCRI2", "MEDICARE_ID": "521305", "ALIS_NAME": "MAYO CLINIC HLTH SYSTM FRANCISCAN HLTHCARE SPARTA", "WITRAC_NAME": "Mayo Clinic Health Sys-Franciscan Sparta", "NAME": "Mayo Clinic Health System - Franciscan Healthcare Sparta", "TYPE_CODE": "1", "FACILITY_TYPE_CODE": "14", "URL": "https://mayoclinichealthsystem.org/locations/sparta" }, "geometry": { "type": "Point", "coordinates": [ -90.81411, 43.944601 ] } },
{ "type": "Feature", "properties": { "OBJECTID": 232, "FACILITY_INTERNAL_ID": 7927, "ADDRESS": "13025 8th St", "ADDRESS_2": null, "CITY": "Osseo", "STATE": "WI", "ZIP": 54758, "ZIP_4": 7634, "LAT": 44.577608, "LON": -91.212713, "STATE_FIPS": 55, "COUNTY": "Trempealeau", "COUNTY_FIPS": 55121, "TYPE_DESC": "HOSPITAL", "SUB_TYPE_DESC": "CRITICAL ACCESS HOSPITALS", "WI_LICENSE_NUM": 1003, "ASPEN_FACILITY_ID": "HSPLCRI4", "MEDICARE_ID": "521302", "ALIS_NAME": "MAYO CLINIC HEALTH SYSTEM-OAKRIDGE", "WITRAC_NAME": "Mayo Clinic Health System - Oakridge", "NAME": "Mayo Clinic Health System – Oakridge in Osseo", "TYPE_CODE": "1", "FACILITY_TYPE_CODE": "14", "URL": "https://mayoclinichealthsystem.org/locations/osseo" }, "geometry": { "type": "Point", "coordinates": [ -91.212713, 44.577608 ] } },
{ "type": "Feature", "properties": { "OBJECTID": 233, "FACILITY_INTERNAL_ID": 7928, "ADDRESS": "601 Grove Ave", "ADDRESS_2": null, "CITY": "Wild Rose", "STATE": "WI", "ZIP": 54984, "ZIP_4": 6903, "LAT": 44.183494, "LON": -89.246073, "STATE_FIPS": 55, "COUNTY": "Waushara", "COUNTY_FIPS": 55137, "TYPE_DESC": "HOSPITAL", "SUB_TYPE_DESC": "CRITICAL ACCESS HOSPITALS", "WI_LICENSE_NUM": 1004, "ASPEN_FACILITY_ID": "HSPLCRI5", "MEDICARE_ID": "521303", "ALIS_NAME": "THEDACARE MEDICAL CENTER - WILD ROSE INC", "WITRAC_NAME": "ThedaCare Med Center - Wild Rose", "NAME": "ThedaCare Medical Center-Wild Rose", "TYPE_CODE": "1", "FACILITY_TYPE_CODE": "14", "URL": "https://www.thedacare.org/hospitals%20and%20clinics/thedacare-medical-center-wild-rose.aspx" }, "geometry": { "type": "Point", "coordinates": [ -89.246073, 44.183494 ] } },
{ "type": "Feature", "properties": { "OBJECTID": 234, "FACILITY_INTERNAL_ID": 8561, "ADDRESS": "1220 3rd Ave W", "ADDRESS_2": null, "CITY": "Durand", "STATE": "WI", "ZIP": 54736, "ZIP_4": 1600, "LAT": 44.620464, "LON": -91.962322, "STATE_FIPS": 55, "COUNTY": "Pepin", "COUNTY_FIPS": 55091, "TYPE_DESC": "HOSPITAL", "SUB_TYPE_DESC": "CRITICAL ACCESS HOSPITALS", "WI_LICENSE_NUM": 1008, "ASPEN_FACILITY_ID": "HSPLCRI8", "MEDICARE_ID": "521307", "ALIS_NAME": "CHIPPEWA VALLEY HOSPITAL", "WITRAC_NAME": "Advent Health Durand - Chippewa Valley", "NAME": "AdventHealth Durand", "TYPE_CODE": "1", "FACILITY_TYPE_CODE": "14", "URL": "https://www.adventhealth.com/hospital/adventhealth-durand" }, "geometry": { "type": "Point", "coordinates": [ -91.962322, 44.620464 ] } },
{ "type": "Feature", "properties": { "OBJECTID": 235, "FACILITY_INTERNAL_ID": 8881, "ADDRESS": "265 Griffin St E", "ADDRESS_2": null, "CITY": "Amery", "STATE": "WI", "ZIP": 54001, "ZIP_4": 1439, "LAT": 45.296857, "LON": -92.360975, "STATE_FIPS": 55, "COUNTY": "Polk", "COUNTY_FIPS": 55095, "TYPE_DESC": "HOSPITAL", "SUB_TYPE_DESC": "CRITICAL ACCESS HOSPITALS", "WI_LICENSE_NUM": 1010, "ASPEN_FACILITY_ID": "HSPLCRI10", "MEDICARE_ID": "521308", "ALIS_NAME": "AMERY HOSPITAL & CLINIC", "WITRAC_NAME": "Amery Hospital and Clinic", "NAME": "Amery Hospital and Clinic", "TYPE_CODE": "1", "FACILITY_TYPE_CODE": "14", "URL": "https://www.amerymedicalcenter.org/" }, "geometry": { "type": "Point", "coordinates": [ -92.360975, 45.296857 ] } },
{ "type": "Feature", "properties": { "OBJECTID": 236, "FACILITY_INTERNAL_ID": 10461, "ADDRESS": "2845 Greenbrier Rd", "ADDRESS_2": null, "CITY": "Green Bay", "STATE": "WI", "ZIP": 54311, "ZIP_4": 6519, "LAT": 44.475061, "LON": -87.940672, "STATE_FIPS": 55, "COUNTY": "Brown", "COUNTY_FIPS": 55009, "TYPE_DESC": "HOSPITAL", "SUB_TYPE_DESC": "SHORT TERM", "WI_LICENSE_NUM": 301, "ASPEN_FACILITY_ID": "HSPLACU142", "MEDICARE_ID": "520193", "ALIS_NAME": "AURORA BAYCARE MEDICAL CTR", "WITRAC_NAME": "Aurora BayCare Medical Center", "NAME": "Aurora BayCare Medical Center", "TYPE_CODE": "1", "FACILITY_TYPE_CODE": "11", "URL": "https://www.aurorabaycare.com/" }, "geometry": { "type": "Point", "coordinates": [ -87.940672, 44.475061 ] } },
{ "type": "Feature", "properties": { "OBJECTID": 237, "FACILITY_INTERNAL_ID": 10480, "ADDRESS": "614 Memorial Dr", "ADDRESS_2": null, "CITY": "Chilton", "STATE": "WI", "ZIP": 53014, "ZIP_4": 1568, "LAT": 44.02524, "LON": -88.15277, "STATE_FIPS": 55, "COUNTY": "Calumet", "COUNTY_FIPS": 55015, "TYPE_DESC": "HOSPITAL", "SUB_TYPE_DESC": "CRITICAL ACCESS HOSPITALS", "WI_LICENSE_NUM": 1020, "ASPEN_FACILITY_ID": "HSPLCRI11", "MEDICARE_ID": "521317", "ALIS_NAME": "ASCENSION CALUMET HOSPITAL", "WITRAC_NAME": "Ascension Calumet Hospital", "NAME": "Ascension Calumet Hospital", "TYPE_CODE": "1", "FACILITY_TYPE_CODE": "14", "URL": "https://healthcare.ascension.org/Locations/Wisconsin/WIAPA/Chilton-Ascension-Calumet-Hospital" }, "geometry": { "type": "Point", "coordinates": [ -88.15277, 44.02524 ] } },
{ "type": "Feature", "properties": { "OBJECTID": 238, "FACILITY_INTERNAL_ID": 15449, "ADDRESS": "1000 Oakleaf Way", "ADDRESS_2": null, "CITY": "Altoona", "STATE": "WI", "ZIP": 54720, "ZIP_4": 2246, "LAT": 44.81541, "LON": -91.452833, "STATE_FIPS": 55, "COUNTY": "Eau Claire", "COUNTY_FIPS": 55035, "TYPE_DESC": "HOSPITAL", "SUB_TYPE_DESC": "SHORT TERM", "WI_LICENSE_NUM": 303, "ASPEN_FACILITY_ID": "HSPLACU144", "MEDICARE_ID": "520196", "ALIS_NAME": "OAKLEAF SURGICAL HOSPITAL", "WITRAC_NAME": "OakLeaf Surgical Hospital", "NAME": "OakLeaf Surgical Hospital", "TYPE_CODE": "1", "FACILITY_TYPE_CODE": "11", "URL": "http://www.oakleafsurgical.com/" }, "geometry": { "type": "Point", "coordinates": [ -91.452833, 44.81541 ] } },
{ "type": "Feature", "properties": { "OBJECTID": 239, "FACILITY_INTERNAL_ID": 23121, "ADDRESS": "130 2nd St", "ADDRESS_2": null, "CITY": "Neenah", "STATE": "WI", "ZIP": 54956, "ZIP_4": 2883, "LAT": 44.187489, "LON": -88.453849, "STATE_FIPS": 55, "COUNTY": "Winnebago", "COUNTY_FIPS": 55139, "TYPE_DESC": "HOSPITAL", "SUB_TYPE_DESC": "CHILDRENS", "WI_LICENSE_NUM": 1005, "ASPEN_FACILITY_ID": "HSPLACU138", "MEDICARE_ID": "523302", "ALIS_NAME": "CHILDRENS HOSPITAL OF WISCONSIN FOX VALLEY", "WITRAC_NAME": "Children's Hospital of WI - Fox Valley", "NAME": "Children's Hospital of Wisconsin -- Fox Valley", "TYPE_CODE": "1", "FACILITY_TYPE_CODE": "16", "URL": "https://chw.org/location-directory/locations/fox-valley" }, "geometry": { "type": "Point", "coordinates": [ -88.453849, 44.187489 ] } },
{ "type": "Feature", "properties": { "OBJECTID": 240, "FACILITY_INTERNAL_ID": 45712, "ADDRESS": "855 N Westhaven Dr", "ADDRESS_2": null, "CITY": "Oshkosh", "STATE": "WI", "ZIP": 54904, "ZIP_4": 7668, "LAT": 44.02712, "LON": -88.59538, "STATE_FIPS": 55, "COUNTY": "Winnebago", "COUNTY_FIPS": 55139, "TYPE_DESC": "HOSPITAL", "SUB_TYPE_DESC": "SHORT TERM", "WI_LICENSE_NUM": 307, "ASPEN_FACILITY_ID": "HSPLACU148", "MEDICARE_ID": "520198", "ALIS_NAME": "AURORA MEDICAL CTR OSHKOSH", "WITRAC_NAME": "Aurora Medical Center - Oshkosh", "NAME": "Aurora Medical Center in Oshkosh", "TYPE_CODE": "1", "FACILITY_TYPE_CODE": "11", "URL": "https://www.aurorahealthcare.org/locations/hospital/aurora-medical-center-in-oshkosh" }, "geometry": { "type": "Point", "coordinates": [ -88.59538, 44.02712 ] } },
{ "type": "Feature", "properties": { "OBJECTID": 241, "FACILITY_INTERNAL_ID": 80161, "ADDRESS": "3400 Ministry Pkwy", "ADDRESS_2": null, "CITY": "Weston", "STATE": "WI", "ZIP": 54476, "ZIP_4": 5220, "LAT": 44.890376, "LON": -89.580014, "STATE_FIPS": 55, "COUNTY": "Marathon", "COUNTY_FIPS": 55073, "TYPE_DESC": "HOSPITAL", "SUB_TYPE_DESC": "SHORT TERM", "WI_LICENSE_NUM": 310, "ASPEN_FACILITY_ID": "HSPLACU150", "MEDICARE_ID": "520202", "ALIS_NAME": "ASCENSION ST CLARES HOSPITAL", "WITRAC_NAME": "Ascension St. Clare's Hospital ", "NAME": "Ascension St. Clare's Hospital ", "TYPE_CODE": "1", "FACILITY_TYPE_CODE": "11", "URL": "https://healthcare.ascension.org/Locations/Wisconsin/WIAPM/Weston-Saint-Clares-Hospital" }, "geometry": { "type": "Point", "coordinates": [ -89.580014, 44.890376 ] } },
{ "type": "Feature", "properties": { "OBJECTID": 242, "FACILITY_INTERNAL_ID": 85737, "ADDRESS": "5000 W National Ave", "ADDRESS_2": null, "CITY": "Milwaukee", "STATE": "WI", "ZIP": 53295, "ZIP_4": 1, "LAT": 43.020975, "LON": -87.976052, "STATE_FIPS": 55, "COUNTY": "Milwaukee", "COUNTY_FIPS": 55079, "TYPE_DESC": "HOSPITAL", "SUB_TYPE_DESC": "NON-PARTICIPATING HOSPITALS", "WI_LICENSE_NUM": null, "ASPEN_FACILITY_ID": "HSPLACU168", "MEDICARE_ID": "52003F", "ALIS_NAME": "CLEMENT J ZABLOCKI VETERANS AFFAIRS", "WITRAC_NAME": "Clement J. Zablocki VA Medical Center", "NAME": "Milwaukee VA Medical Center (Zablocki)", "TYPE_CODE": "1", "FACILITY_TYPE_CODE": "19", "URL": "https://www.milwaukee.va.gov/" }, "geometry": { "type": "Point", "coordinates": [ -87.976052, 43.020975 ] } },
{ "type": "Feature", "properties": { "OBJECTID": 243, "FACILITY_INTERNAL_ID": 86108, "ADDRESS": "500 E Veterans St", "ADDRESS_2": null, "CITY": "Tomah", "STATE": "WI", "ZIP": 54660, "ZIP_4": 3105, "LAT": 44.004467, "LON": -90.495282, "STATE_FIPS": 55, "COUNTY": "Monroe", "COUNTY_FIPS": 55081, "TYPE_DESC": "HOSPITAL", "SUB_TYPE_DESC": "NON-PARTICIPATING HOSPITALS", "WI_LICENSE_NUM": null, "ASPEN_FACILITY_ID": "HSPLACU207", "MEDICARE_ID": "52002F", "ALIS_NAME": "TOMAH VA MEDICAL CENTER", "WITRAC_NAME": "Tomah Veterans Affairs Medical Center", "NAME": "Tomah VA Medical Center", "TYPE_CODE": "1", "FACILITY_TYPE_CODE": "19", "URL": "https://www.tomah.va.gov/" }, "geometry": { "type": "Point", "coordinates": [ -90.495282, 44.004467 ] } },
{ "type": "Feature", "properties": { "OBJECTID": 244, "FACILITY_INTERNAL_ID": 86410, "ADDRESS": "2500 Overlook Ter", "ADDRESS_2": null, "CITY": "Madison", "STATE": "WI", "ZIP": 53705, "ZIP_4": 2254, "LAT": 43.074375, "LON": -89.430846, "STATE_FIPS": 55, "COUNTY": "Dane", "COUNTY_FIPS": 55025, "TYPE_DESC": "HOSPITAL", "SUB_TYPE_DESC": "NON-PARTICIPATING HOSPITALS", "WI_LICENSE_NUM": null, "ASPEN_FACILITY_ID": "HSPLACU214", "MEDICARE_ID": "52004F", "ALIS_NAME": "WILLIAM S MIDDLETON MEMORIAL VETERANS HOSPITAL", "WITRAC_NAME": "William S. Middleton Mem Vet Hosp", "NAME": "William S. Middleton Memorial Veterans Hospital", "TYPE_CODE": "1", "FACILITY_TYPE_CODE": "19", "URL": "https://www.madison.va.gov/" }, "geometry": { "type": "Point", "coordinates": [ -89.430846, 43.074375 ] } },
{ "type": "Feature", "properties": { "OBJECTID": 245, "FACILITY_INTERNAL_ID": 91694, "ADDRESS": "1110 7th Ave", "ADDRESS_2": null, "CITY": "Cumberland", "STATE": "WI", "ZIP": 54829, "ZIP_4": 9138, "LAT": 45.53088, "LON": -92.02871, "STATE_FIPS": 55, "COUNTY": "Barron", "COUNTY_FIPS": 55005, "TYPE_DESC": "HOSPITAL", "SUB_TYPE_DESC": "CRITICAL ACCESS HOSPITALS", "WI_LICENSE_NUM": 1058, "ASPEN_FACILITY_ID": "HSPLACU217", "MEDICARE_ID": "521353", "ALIS_NAME": "CUMBERLAND MEMORIAL HOSPITAL", "WITRAC_NAME": "Cumberland Healthcare", "NAME": "Cumberland Healthcare", "TYPE_CODE": "1", "FACILITY_TYPE_CODE": "14", "URL": "https://cumberlandhealthcare.com/" }, "geometry": { "type": "Point", "coordinates": [ -92.02871, 45.53088 ] } },
{ "type": "Feature", "properties": { "OBJECTID": 246, "FACILITY_INTERNAL_ID": 126061, "ADDRESS": "1400 Eastside Rd", "ADDRESS_2": null, "CITY": "Platteville", "STATE": "WI", "ZIP": 53818, "ZIP_4": 9800, "LAT": 42.719888, "LON": -90.457895, "STATE_FIPS": 55, "COUNTY": "Grant", "COUNTY_FIPS": 55043, "TYPE_DESC": "HOSPITAL", "SUB_TYPE_DESC": "CRITICAL ACCESS HOSPITALS", "WI_LICENSE_NUM": 1059, "ASPEN_FACILITY_ID": "HSPLACU219", "MEDICARE_ID": "521354", "ALIS_NAME": "SOUTHWEST HEALTH CENTER", "WITRAC_NAME": "Southwest Health ", "NAME": "Southwest Health ", "TYPE_CODE": "1", "FACILITY_TYPE_CODE": "14", "URL": "https://www.southwesthealth.org/" }, "geometry": { "type": "Point", "coordinates": [ -90.457895, 42.719888 ] } },
{ "type": "Feature", "properties": { "OBJECTID": 247, "FACILITY_INTERNAL_ID": 126342, "ADDRESS": "820 Arbutus Ave", "ADDRESS_2": null, "CITY": "Oconto", "STATE": "WI", "ZIP": 54153, "ZIP_4": 2004, "LAT": 44.89624, "LON": -87.86584, "STATE_FIPS": 55, "COUNTY": "Oconto", "COUNTY_FIPS": 55083, "TYPE_DESC": "HOSPITAL", "SUB_TYPE_DESC": "CRITICAL ACCESS HOSPITALS", "WI_LICENSE_NUM": 1061, "ASPEN_FACILITY_ID": "HSPLCRI17", "MEDICARE_ID": "521356", "ALIS_NAME": "BELLIN HEALTH OCONTO HOSPITAL", "WITRAC_NAME": "Bellin Health Oconto Hospital", "NAME": "Bellin Health Oconto Hospital and Clinic", "TYPE_CODE": "1", "FACILITY_TYPE_CODE": "14", "URL": "https://www.bellin.org/locations/hospital_surgery-locations/bellin-oconto-hospital" }, "geometry": { "type": "Point", "coordinates": [ -87.86584, 44.89624 ] } },
{ "type": "Feature", "properties": { "OBJECTID": 248, "FACILITY_INTERNAL_ID": 128498, "ADDRESS": "N2950 State Road 67", "ADDRESS_2": null, "CITY": "Lake Geneva", "STATE": "WI", "ZIP": 53147, "ZIP_4": 2655, "LAT": 42.598083, "LON": -88.539668, "STATE_FIPS": 55, "COUNTY": "Walworth", "COUNTY_FIPS": 55127, "TYPE_DESC": "HOSPITAL", "SUB_TYPE_DESC": "CRITICAL ACCESS HOSPITALS", "WI_LICENSE_NUM": 1062, "ASPEN_FACILITY_ID": "HSPLCRI18", "MEDICARE_ID": "521357", "ALIS_NAME": "MERCY WALWORTH HOSPITAL & MEDICAL CENTER", "WITRAC_NAME": "Mercy Walworth Hospital & Medical Center", "NAME": "Mercyhealth Hospital and Medical Center–Walworth", "TYPE_CODE": "1", "FACILITY_TYPE_CODE": "14", "URL": "https://mercyhealthsystem.org/location/mercyhealth-walworth-hospital-and-medical-center-campus/" }, "geometry": { "type": "Point", "coordinates": [ -88.539668, 42.598083 ] } },
{ "type": "Feature", "properties": { "OBJECTID": 249, "FACILITY_INTERNAL_ID": 128646, "ADDRESS": "225 Memorial Dr", "ADDRESS_2": null, "CITY": "Berlin", "STATE": "WI", "ZIP": 54923, "ZIP_4": 1243, "LAT": 43.978508, "LON": -88.941152, "STATE_FIPS": 55, "COUNTY": "Green Lake", "COUNTY_FIPS": 55047, "TYPE_DESC": "HOSPITAL", "SUB_TYPE_DESC": "CRITICAL ACCESS HOSPITALS", "WI_LICENSE_NUM": 1060, "ASPEN_FACILITY_ID": "HSPLCRI19", "MEDICARE_ID": "521355", "ALIS_NAME": "THEDACARE MEDICAL CENTER - BERLIN INC", "WITRAC_NAME": "ThedaCare Med Center - Berlin", "NAME": "ThedaCare Medical Center-Berlin", "TYPE_CODE": "1", "FACILITY_TYPE_CODE": "14", "URL": "https://www.thedacare.org/hospitals%20and%20clinics/thedacare-medical-center-berlin.aspx" }, "geometry": { "type": "Point", "coordinates": [ -88.941152, 43.978508 ] } },
{ "type": "Feature", "properties": { "OBJECTID": 250, "FACILITY_INTERNAL_ID": 143920, "ADDRESS": "323 S 18th Ave", "ADDRESS_2": null, "CITY": "Sturgeon Bay", "STATE": "WI", "ZIP": 54235, "ZIP_4": 1401, "LAT": 44.83266, "LON": -87.35363, "STATE_FIPS": 55, "COUNTY": "Door", "COUNTY_FIPS": 55029, "TYPE_DESC": "HOSPITAL", "SUB_TYPE_DESC": "CRITICAL ACCESS HOSPITALS", "WI_LICENSE_NUM": 1064, "ASPEN_FACILITY_ID": "HSPLCRI20", "MEDICARE_ID": "521358", "ALIS_NAME": "DOOR COUNTY MEDICAL CENTER", "WITRAC_NAME": "Door County Medical Center ", "NAME": "Door County Medical Center ", "TYPE_CODE": "1", "FACILITY_TYPE_CODE": "14", "URL": "https://www.dcmedical.org/" }, "geometry": { "type": "Point", "coordinates": [ -87.35363, 44.83266 ] } },
{ "type": "Feature", "properties": { "OBJECTID": 252, "FACILITY_INTERNAL_ID": 144976, "ADDRESS": "19333 W North Ave", "ADDRESS_2": null, "CITY": "Brookfield", "STATE": "WI", "ZIP": 53045, "ZIP_4": 4132, "LAT": 43.059053, "LON": -88.154742, "STATE_FIPS": 55, "COUNTY": "Waukesha", "COUNTY_FIPS": 55133, "TYPE_DESC": "HOSPITAL SATELLITE LOCATIONS", "SUB_TYPE_DESC": "HOSPITAL SATELLITE LOCATIONS", "WI_LICENSE_NUM": null, "ASPEN_FACILITY_ID": "HSPSAT007", "MEDICARE_ID": "NULL", "ALIS_NAME": "ASCENSION SE WISCONSIN HOSPITAL - ELMBROOK CAMPUS", "WITRAC_NAME": "Ascension Elmbrook Hospital Campus ", "NAME": "Ascension SE Wisconsin Hospital - Elmbrook Campus", "TYPE_CODE": "HS", "FACILITY_TYPE_CODE": "HS1", "URL": "https://healthcare.ascension.org/Locations/Wisconsin/WIWHE/Brookfield-Ascension-SE-Wisconsin-Hospital-Elmbrook-Campus" }, "geometry": { "type": "Point", "coordinates": [ -88.154742, 43.059053 ] } },
{ "type": "Feature", "properties": { "OBJECTID": 253, "FACILITY_INTERNAL_ID": 144978, "ADDRESS": "5900 S Lake Dr", "ADDRESS_2": null, "CITY": "Cudahy", "STATE": "WI", "ZIP": 53110, "ZIP_4": 3171, "LAT": 42.936488, "LON": -87.851332, "STATE_FIPS": 55, "COUNTY": "Milwaukee", "COUNTY_FIPS": 55079, "TYPE_DESC": "HOSPITAL SATELLITE LOCATIONS", "SUB_TYPE_DESC": "HOSPITAL SATELLITE LOCATIONS", "WI_LICENSE_NUM": null, "ASPEN_FACILITY_ID": "HSPSAT008", "MEDICARE_ID": "NULL", "ALIS_NAME": "AURORA ST LUKES MED CTR SOUTH SHORE", "WITRAC_NAME": "Aurora Health Care-St Lukes S Shore Hosp", "NAME": "Aurora St. Luke's South Shore of Aurora Health Care Metro, Inc.", "TYPE_CODE": "HS", "FACILITY_TYPE_CODE": "HS2", "URL": "https://www.aurorahealthcare.org/locations/hospital/aurora-st-lukes-south-shore" }, "geometry": { "type": "Point", "coordinates": [ -87.851332, 42.936488 ] } },
{ "type": "Feature", "properties": { "OBJECTID": 254, "FACILITY_INTERNAL_ID": 288571, "ADDRESS": "10101 S 27th St", "ADDRESS_2": null, "CITY": "Franklin", "STATE": "WI", "ZIP": 53132, "ZIP_4": 7209, "LAT": 42.860052, "LON": -87.954075, "STATE_FIPS": 55, "COUNTY": "Milwaukee", "COUNTY_FIPS": 55078, "TYPE_DESC": "HOSPITAL", "SUB_TYPE_DESC": "SHORT TERM", "WI_LICENSE_NUM": 1070, "ASPEN_FACILITY_ID": "HSPLACU992", "MEDICARE_ID": "520204", "ALIS_NAME": "MIDWEST ORTHOPEDIC SPECIALTY HOSPITAL", "WITRAC_NAME": "Ascension Franklin Campus", "NAME": "Ascension SE Wisconsin Hospital - Franklin Campus", "TYPE_CODE": "1", "FACILITY_TYPE_CODE": "11", "URL": "https://healthcare.ascension.org/Locations/Wisconsin/WIWHE/Franklin-Ascension-SE-Wisconsin-Hospital-Franklin-Campus/Our-Specialties" }, "geometry": { "type": "Point", "coordinates": [ -87.954075, 42.860052 ] } },
{ "type": "Feature", "properties": { "OBJECTID": 255, "FACILITY_INTERNAL_ID": 318634, "ADDRESS": "36500 Aurora Dr", "ADDRESS_2": null, "CITY": "Summit", "STATE": "WI", "ZIP": 53066, "ZIP_4": 4899, "LAT": 43.066, "LON": -88.46745, "STATE_FIPS": 55, "COUNTY": "Waukesha", "COUNTY_FIPS": 55133, "TYPE_DESC": "HOSPITAL", "SUB_TYPE_DESC": "SHORT TERM", "WI_LICENSE_NUM": 316, "ASPEN_FACILITY_ID": "HSPLACU220", "MEDICARE_ID": "520206", "ALIS_NAME": "AURORA MEDICAL CENTER SUMMIT", "WITRAC_NAME": "Aurora Medical Center Summit", "NAME": "Aurora Medical Center in Summit", "TYPE_CODE": "1", "FACILITY_TYPE_CODE": "11", "URL": "https://www.aurorahealthcare.org/locations/hospital/aurora-medical-center-in-summit" }, "geometry": { "type": "Point", "coordinates": [ -88.46745, 43.066 ] } },
{ "type": "Feature", "properties": { "OBJECTID": 256, "FACILITY_INTERNAL_ID": 341055, "ADDRESS": "945 North 12th Street ", "ADDRESS_2": null, "CITY": "Milwaukee", "STATE": "WI", "ZIP": 53233, "ZIP_4": null, "LAT": 43.042617, "LON": -87.927681, "STATE_FIPS": 55, "COUNTY": "Milwaukee", "COUNTY_FIPS": 55079, "TYPE_DESC": "HOSPITAL", "SUB_TYPE_DESC": "HOSPITAL SATELLITE LOCATIONS", "WI_LICENSE_NUM": null, "ASPEN_FACILITY_ID": "HSPSAT016", "MEDICARE_ID": "NULL", "ALIS_NAME": "AURORA SINAI MEDICAL CENTER", "WITRAC_NAME": "Aurora Sinai Medical Center", "NAME": "Aurora Sinai Medical Center of Aurora Health Care Metro, Inc.", "TYPE_CODE": "HS", "FACILITY_TYPE_CODE": "HS1", "URL": "https://www.aurorahealthcare.org/locations/hospital/aurora-sinai-medical-center" }, "geometry": { "type": "Point", "coordinates": [ -87.927681, 43.042617 ] } },
{ "type": "Feature", "properties": { "OBJECTID": 257, "FACILITY_INTERNAL_ID": 350214, "ADDRESS": "975 Port Washington Rd", "ADDRESS_2": null, "CITY": "Grafton", "STATE": "WI", "ZIP": 53024, "ZIP_4": 9201, "LAT": 43.323784, "LON": -87.928106, "STATE_FIPS": 55, "COUNTY": "Ozaukee", "COUNTY_FIPS": 55089, "TYPE_DESC": "HOSPITAL", "SUB_TYPE_DESC": "SHORT TERM", "WI_LICENSE_NUM": 317, "ASPEN_FACILITY_ID": "HSPLACU221", "MEDICARE_ID": "520207", "ALIS_NAME": "AURORA MEDICAL CENTER", "WITRAC_NAME": "Aurora Medical Center - Grafton", "NAME": "Aurora Medical Center in Grafton", "TYPE_CODE": "1", "FACILITY_TYPE_CODE": "11", "URL": "https://www.aurorahealthcare.org/locations/hospital/aurora-medical-center-in-grafton" }, "geometry": { "type": "Point", "coordinates": [ -87.928106, 43.323784 ] } },
{ "type": "Feature", "properties": { "OBJECTID": 258, "FACILITY_INTERNAL_ID": 373877, "ADDRESS": "3400 E Racine St", "ADDRESS_2": null, "CITY": "Janesville", "STATE": "WI", "ZIP": 53546, "ZIP_4": 2344, "LAT": 42.668953, "LON": -88.977136, "STATE_FIPS": 55, "COUNTY": "Rock", "COUNTY_FIPS": 55105, "TYPE_DESC": "HOSPITAL", "SUB_TYPE_DESC": "SHORT TERM", "WI_LICENSE_NUM": 318, "ASPEN_FACILITY_ID": "HSPLACU994", "MEDICARE_ID": "520208", "ALIS_NAME": "SSM HEALTH ST MARY'S HOSPITAL - JANESVILLE", "WITRAC_NAME": "St. Mary's - Janesville", "NAME": "SSM Health St. Mary's Hospital - Janesville", "TYPE_CODE": "1", "FACILITY_TYPE_CODE": "11", "URL": "https://www.ssmhealth.com/locations/st-marys-hospital-janesville" }, "geometry": { "type": "Point", "coordinates": [ -88.977136, 42.668953 ] } },
{ "type": "Feature", "properties": { "OBJECTID": 259, "FACILITY_INTERNAL_ID": 573292, "ADDRESS": "2310 Craig Rd", "ADDRESS_2": null, "CITY": "Eau Claire", "STATE": "WI", "ZIP": 54701, "ZIP_4": 6128, "LAT": 44.794301, "LON": -91.519855, "STATE_FIPS": 55, "COUNTY": "Eau Claire", "COUNTY_FIPS": 55035, "TYPE_DESC": "HOSPITAL", "SUB_TYPE_DESC": "SHORT TERM", "WI_LICENSE_NUM": 323, "ASPEN_FACILITY_ID": "HSPLACU222", "MEDICARE_ID": null, "ALIS_NAME": "MARSHFIELD MEDICAL CENTER - EAU CLAIRE", "WITRAC_NAME": "Marshfield Medical Center - Eau Claire", "NAME": "Eau Claire - Marshfield Medical Center", "TYPE_CODE": "1", "FACILITY_TYPE_CODE": "11", "URL": "https://www.marshfieldclinic.org/locations/centers/Eau%20Claire%20-%20Marshfield%20Medical%20Center" }, "geometry": { "type": "Point", "coordinates": [ -91.519855, 44.794301 ] } },
{ "type": "Feature", "properties": { "OBJECTID": 260, "FACILITY_INTERNAL_ID": 573560, "ADDRESS": "500 S Oakwood Rd", "ADDRESS_2": null, "CITY": "Oshkosh", "STATE": "WI", "ZIP": 54901, "ZIP_4": 7944, "LAT": 44.013243, "LON": -88.600539, "STATE_FIPS": 55, "COUNTY": "Winnebago", "COUNTY_FIPS": 55139, "TYPE_DESC": "HOSPITAL SATELLITE LOCATIONS", "SUB_TYPE_DESC": "HOSPITAL SATELLITE LOCATIONS", "WI_LICENSE_NUM": null, "ASPEN_FACILITY_ID": "HSPSAT019", "MEDICARE_ID": "NULL", "ALIS_NAME": "ASCENSION NE WISCONSIN-MERCY CAMPUS", "WITRAC_NAME": "Ascension Mercy Oshkosh", "NAME": "Ascension NE Wisconsin - Mercy Campus", "TYPE_CODE": "HS", "FACILITY_TYPE_CODE": "HS1", "URL": "https://healthcare.ascension.org/Locations/Wisconsin/WIAPA/Oshkosh-Ascension-NE-Wisconsin-Mercy-Campus" }, "geometry": { "type": "Point", "coordinates": [ -88.600539, 44.013243 ] } },
{ "type": "Feature", "properties": { "OBJECTID": 261, "FACILITY_INTERNAL_ID": 249584, "ADDRESS": "230 Deronda St", "ADDRESS_2": null, "CITY": "Amery", "STATE": "WI", "ZIP": 54001, "ZIP_4": 1412, "LAT": 45.302453, "LON": -92.365801, "STATE_FIPS": 55, "COUNTY": "Polk", "COUNTY_FIPS": 55095, "TYPE_DESC": "HOSPITAL SATELLITE LOCATIONS", "SUB_TYPE_DESC": "HOSPITAL SATELLITE LOCATIONS", "WI_LICENSE_NUM": 1069, "ASPEN_FACILITY_ID": "HSPSAT014", "MEDICARE_ID": null, "ALIS_NAME": "AMERY HOSPITAL & CLINIC BEHAVIORAL HEALTH CENTER", "WITRAC_NAME": null, "NAME": "Amery Hospital & Clinic Behavioral Health Center", "TYPE_CODE": "HS", "FACILITY_TYPE_CODE": "HS1", "URL": "https://www.amerymedicalcenter.org/medical_services/behavioral_health_center.aspx" }, "geometry": { "type": "Point", "coordinates": [ -92.365800999704987, 45.302452999938268 ] } },
{ "type": "Feature", "properties": { "OBJECTID": 262, "FACILITY_INTERNAL_ID": 144974, "ADDRESS": "1320 Wisconsin Ave", "ADDRESS_2": null, "CITY": "Racine", "STATE": "WI", "ZIP": 53403, "ZIP_4": 1978, "LAT": 42.716365, "LON": -87.784281, "STATE_FIPS": 55, "COUNTY": "Racine", "COUNTY_FIPS": 55101, "TYPE_DESC": "HOSPITAL SATELLITE LOCATIONS", "SUB_TYPE_DESC": "HOSPITAL SATELLITE LOCATIONS", "WI_LICENSE_NUM": 154, "ASPEN_FACILITY_ID": "HSPSAT006", "MEDICARE_ID": null, "ALIS_NAME": "ASCENSION ALL SAINTS HOSPITAL", "WITRAC_NAME": "Ascension-All Saints-WI Ave", "NAME": "Ascension All Saints - Wisconsin Avenue", "TYPE_CODE": "HS", "FACILITY_TYPE_CODE": "HS1", "URL": "https://healthcare.ascension.org/" }, "geometry": { "type": "Point", "coordinates": [ -87.784281000236774, 42.716364999861675 ] } },
{ "type": "Feature", "properties": { "OBJECTID": 263, "FACILITY_INTERNAL_ID": 573546, "ADDRESS": "10101 S 27th St", "ADDRESS_2": null, "CITY": "Franklin", "STATE": "WI", "ZIP": 53132, "ZIP_4": 7209, "LAT": 42.85984, "LON": -87.953995, "STATE_FIPS": 55, "COUNTY": "Milwaukee", "COUNTY_FIPS": 55079, "TYPE_DESC": "HOSPITAL SATELLITE LOCATIONS", "SUB_TYPE_DESC": "HOSPITAL SATELLITE LOCATIONS", "WI_LICENSE_NUM": 314, "ASPEN_FACILITY_ID": "HSPSAT018", "MEDICARE_ID": null, "ALIS_NAME": "ASCENSION SE WISCONSIN HOSPITAL - FRANKLIN CAMPUS", "WITRAC_NAME": null, "NAME": "Ascension SE Wisconsin Hospital - Franklin Campus", "TYPE_CODE": "HS", "FACILITY_TYPE_CODE": "HS1", "URL": "https://healthcare.ascension.org/" }, "geometry": { "type": "Point", "coordinates": [ -87.953994999693421, 42.859840000084603 ] } },
{ "type": "Feature", "properties": { "OBJECTID": 264, "FACILITY_INTERNAL_ID": 588328, "ADDRESS": "5409 Vern Holmes Dr", "ADDRESS_2": null, "CITY": "Stevens Point", "STATE": "WI", "ZIP": 54482, "ZIP_4": 8853, "LAT": 44.498909, "LON": -89.516567, "STATE_FIPS": 55, "COUNTY": "Portage", "COUNTY_FIPS": 55097, "TYPE_DESC": "HOSPITAL SATELLITE LOCATIONS", "SUB_TYPE_DESC": "HOSPITAL SATELLITE LOCATIONS", "WI_LICENSE_NUM": 324, "ASPEN_FACILITY_ID": "HSPSAT020", "MEDICARE_ID": null, "ALIS_NAME": "ASPIRUS STEVENS POINT HOSPITAL", "WITRAC_NAME": "Aspirus Stevens Point Hospital", "NAME": "Aspirus Stevens Point", "TYPE_CODE": "HS", "FACILITY_TYPE_CODE": "HS1", "URL": "https://www.aspirus.org/find-a-location/aspirus-stevens-point-clinic-2" }, "geometry": { "type": "Point", "coordinates": [ -89.516566999982416, 44.498909000184284 ] } },
{ "type": "Feature", "properties": { "OBJECTID": 265, "FACILITY_INTERNAL_ID": 144983, "ADDRESS": "9200 W Wisconsin Ave", "ADDRESS_2": null, "CITY": "Milwaukee", "STATE": "WI", "ZIP": 53226, "ZIP_4": 3522, "LAT": 43.038688, "LON": -88.026479, "STATE_FIPS": 55, "COUNTY": "Milwaukee", "COUNTY_FIPS": 55079, "TYPE_DESC": "HOSPITAL SATELLITE LOCATIONS", "SUB_TYPE_DESC": "HOSPITAL SATELLITE LOCATIONS", "WI_LICENSE_NUM": 279, "ASPEN_FACILITY_ID": "HSPSAT010", "MEDICARE_ID": null, "ALIS_NAME": "FROEDTERT MEMORIAL LUTHERAN HOSPITAL CHW", "WITRAC_NAME": "Froedtert Hospital - Froedtert & MCW", "NAME": "Froedtert Hospital", "TYPE_CODE": "HS", "FACILITY_TYPE_CODE": "HS1", "URL": "https://www.froedtert.com/locations/hospital/froedtert-hospital" }, "geometry": { "type": "Point", "coordinates": [ -88.026478999956964, 43.03868799987508 ] } },
{ "type": "Feature", "properties": { "OBJECTID": 266, "FACILITY_INTERNAL_ID": 144962, "ADDRESS": "1701 Dousman St", "ADDRESS_2": null, "CITY": "Green Bay", "STATE": "WI", "ZIP": 54303, "ZIP_4": 3211, "LAT": 44.533556, "LON": -88.063109, "STATE_FIPS": 55, "COUNTY": "Brown", "COUNTY_FIPS": 55009, "TYPE_DESC": "HOSPITAL SATELLITE LOCATIONS", "SUB_TYPE_DESC": "HOSPITAL SATELLITE LOCATIONS", "WI_LICENSE_NUM": 259, "ASPEN_FACILITY_ID": "HSPSAT001", "MEDICARE_ID": null, "ALIS_NAME": "LIBERTAS GREEN BAY", "WITRAC_NAME": null, "NAME": "Libertas", "TYPE_CODE": "HS", "FACILITY_TYPE_CODE": "HS1", "URL": "https://www.libertastreatment.org/" }, "geometry": { "type": "Point", "coordinates": [ -88.06310900042628, 44.533555999760864 ] } },
{ "type": "Feature", "properties": { "OBJECTID": 267, "FACILITY_INTERNAL_ID": 592494, "ADDRESS": "9576 State Highway 70", "ADDRESS_2": null, "CITY": "Minocqua", "STATE": "WI", "ZIP": 54548, "ZIP_4": 9067, "LAT": 45.89022, "LON": -89.710975, "STATE_FIPS": 55, "COUNTY": "Oneida", "COUNTY_FIPS": 55085, "TYPE_DESC": "HOSPITAL", "SUB_TYPE_DESC": "SHORT TERM", "WI_LICENSE_NUM": 325, "ASPEN_FACILITY_ID": "HSPLACU223", "MEDICARE_ID": null, "ALIS_NAME": "MARSHFIELD MEDICAL CENTER - MINOCQUA", "WITRAC_NAME": null, "NAME": "Marshfield Medical Center Minocqua - Outpatient Services", "TYPE_CODE": "1", "FACILITY_TYPE_CODE": "11", "URL": "https://www.marshfieldclinic.org/locations/minocqua-marshfield-medical-center/minocqua-outpatient-services" }, "geometry": { "type": "Point", "coordinates": [ -89.710975000286609, 45.89022000016157 ] } },
{ "type": "Feature", "properties": { "OBJECTID": 268, "FACILITY_INTERNAL_ID": 9815, "ADDRESS": "475 W River Woods Pkwy", "ADDRESS_2": null, "CITY": "Glendale", "STATE": "WI", "ZIP": 53212, "ZIP_4": 1081, "LAT": 43.097222, "LON": -87.911481, "STATE_FIPS": 55, "COUNTY": "Milwaukee", "COUNTY_FIPS": 55079, "TYPE_DESC": "HOSPITAL", "SUB_TYPE_DESC": "SHORT TERM", "WI_LICENSE_NUM": 1006, "ASPEN_FACILITY_ID": "HSPLACU140", "MEDICARE_ID": "520194", "ALIS_NAME": "ORTHOPAEDIC HOSPITAL OF WISCONSIN", "WITRAC_NAME": "Orthopaedic Hospital of Wisconsin", "NAME": "Orthopaedic Hospital of Wisconsin", "TYPE_CODE": "1", "FACILITY_TYPE_CODE": "11", "URL": "https://www.ohow.com/" }, "geometry": { "type": "Point", "coordinates": [ -87.911480999977158, 43.097222000048461 ] } },
{ "type": "Feature", "properties": { "OBJECTID": 269, "FACILITY_INTERNAL_ID": 509174, "ADDRESS": "4600 W Schroeder Dr", "ADDRESS_2": null, "CITY": "Brown Deer", "STATE": "WI", "ZIP": 53223, "ZIP_4": 6458, "LAT": 43.187319, "LON": -87.968094, "STATE_FIPS": 55, "COUNTY": "Milwaukee", "COUNTY_FIPS": 55079, "TYPE_DESC": "HOSPITAL SATELLITE LOCATIONS", "SUB_TYPE_DESC": "HOSPITAL SATELLITE LOCATIONS", "WI_LICENSE_NUM": 320, "ASPEN_FACILITY_ID": "HSPSAT017", "MEDICARE_ID": null, "ALIS_NAME": "ROGERS MEMORIAL HOSPITAL", "WITRAC_NAME": null, "NAME": "Rogers Behavioral Health - Brown Deer", "TYPE_CODE": "HS", "FACILITY_TYPE_CODE": "HS1", "URL": "https://rogersbh.org/locations/brown-deer" }, "geometry": { "type": "Point", "coordinates": [ -87.96809399968717, 43.187318999985521 ] } },
{ "type": "Feature", "properties": { "OBJECTID": 270, "FACILITY_INTERNAL_ID": 144987, "ADDRESS": "11101 W Lincoln Ave", "ADDRESS_2": null, "CITY": "West Allis", "STATE": "WI", "ZIP": 53227, "ZIP_4": 1133, "LAT": 43.001287, "LON": -88.051321, "STATE_FIPS": 55, "COUNTY": "Milwaukee", "COUNTY_FIPS": 55079, "TYPE_DESC": "HOSPITAL SATELLITE LOCATIONS", "SUB_TYPE_DESC": "HOSPITAL SATELLITE LOCATIONS", "WI_LICENSE_NUM": 751, "ASPEN_FACILITY_ID": "HSPSAT012", "MEDICARE_ID": null, "ALIS_NAME": "ROGERS MEMORIAL HOSPITAL MILWAUKEE", "WITRAC_NAME": "Rogers Memorial Hospital - West Allis", "NAME": "Rogers Behovioral Health - West Allis", "TYPE_CODE": "HS", "FACILITY_TYPE_CODE": "HS1", "URL": "https://rogersbh.org/locations/west-allis" }, "geometry": { "type": "Point", "coordinates": [ -88.05132100004424, 43.001286999866338 ] } },
{ "type": "Feature", "properties": { "OBJECTID": 271, "FACILITY_INTERNAL_ID": 144985, "ADDRESS": "3237 S 16th St Fl 5", "ADDRESS_2": null, "CITY": "Milwaukee", "STATE": "WI", "ZIP": 53215, "ZIP_4": 4526, "LAT": 42.985668, "LON": -87.935828, "STATE_FIPS": 55, "COUNTY": "Milwaukee", "COUNTY_FIPS": 55079, "TYPE_DESC": "HOSPITAL SATELLITE LOCATIONS", "SUB_TYPE_DESC": "HOSPITAL SATELLITE LOCATIONS", "WI_LICENSE_NUM": 304, "ASPEN_FACILITY_ID": "HSPSAT011", "MEDICARE_ID": null, "ALIS_NAME": "SELECT SPEC HOSPITAL - ST FRANCIS", "WITRAC_NAME": "Select Specialty Hospital St Francis", "NAME": "Select Specialty Hospital Milwaukee St. Francis", "TYPE_CODE": "HS", "FACILITY_TYPE_CODE": "HS1", "URL": "https://milwaukeestfrancis.selectspecialtyhospitals.com/" }, "geometry": { "type": "Point", "coordinates": [ -87.935827999596725, 42.985668000201827 ] } },
{ "type": "Feature", "properties": { "OBJECTID": 272, "FACILITY_INTERNAL_ID": 146030, "ADDRESS": "1185 N Elm St", "ADDRESS_2": null, "CITY": "Platteville", "STATE": "WI", "ZIP": 53818, "ZIP_4": 1207, "LAT": 42.745453, "LON": -90.479915, "STATE_FIPS": 55, "COUNTY": "Grant", "COUNTY_FIPS": 55043, "TYPE_DESC": "HOSPITAL SATELLITE LOCATIONS", "SUB_TYPE_DESC": "HOSPITAL SATELLITE LOCATIONS", "WI_LICENSE_NUM": 1063, "ASPEN_FACILITY_ID": "HSPSAT13", "MEDICARE_ID": null, "ALIS_NAME": "SOUTHWEST HEALTH CARE BEHAVIORAL SERVICES", "WITRAC_NAME": null, "NAME": "Southwest Health Behovioral Services", "TYPE_CODE": "HS", "FACILITY_TYPE_CODE": "HS1", "URL": "https://www.southwesthealth.org/services/southwest-behavioral-services/" }, "geometry": { "type": "Point", "coordinates": [ -90.47991499983226, 42.745452999776596 ] } },
{ "type": "Feature", "properties": { "OBJECTID": 273, "FACILITY_INTERNAL_ID": 144972, "ADDRESS": "8102 Wellness Way", "ADDRESS_2": null, "CITY": "Madison", "STATE": "WI", "ZIP": 53719, "ZIP_4": 8800, "LAT": 43.019226, "LON": -89.52573, "STATE_FIPS": 55, "COUNTY": "Dane", "COUNTY_FIPS": 55025, "TYPE_DESC": "HOSPITAL SATELLITE LOCATIONS", "SUB_TYPE_DESC": "HOSPITAL SATELLITE LOCATIONS", "WI_LICENSE_NUM": 752, "ASPEN_FACILITY_ID": "HSPSAT005", "MEDICARE_ID": null, "ALIS_NAME": "UNITYPOINT HEALTH MERITER CHILD & ADOLESCENT PSYCH", "WITRAC_NAME": null, "NAME": "UnityPoint Health Meriter Child & Adolescent Psychiatry", "TYPE_CODE": "HS", "FACILITY_TYPE_CODE": "HS1", "URL": "https://www.unitypoint.org/madison/child-and-adolescent-psychiatry.aspx" }, "geometry": { "type": "Point", "coordinates": [ -89.52573000003504, 43.019226000067306 ] } },
{ "type": "Feature", "properties": { "OBJECTID": 274, "FACILITY_INTERNAL_ID": 4176, "ADDRESS": "100 County Road B", "ADDRESS_2": null, "CITY": "Shawano", "STATE": "WI", "ZIP": 54166, "ZIP_4": 7072, "LAT": 44.760661, "LON": -88.606604, "STATE_FIPS": 55, "COUNTY": "Shawano", "COUNTY_FIPS": 55115, "TYPE_DESC": "HOSPITAL", "SUB_TYPE_DESC": "CRITICAL ACCESS HOSPITALS", "WI_LICENSE_NUM": 1051, "ASPEN_FACILITY_ID": "HSPLACU86", "MEDICARE_ID": "521346", "ALIS_NAME": "THEDACARE MEDICAL CENTER - SHAWANO INC", "WITRAC_NAME": "ThedaCare Med Center - Shawano", "NAME": "ThedaCare Meidical Center-Shawano", "TYPE_CODE": "1", "FACILITY_TYPE_CODE": "14", "URL": "https://www.thedacare.org/Hospitals-and-Clinics/thedacare-medical-center-shawano.aspx" }, "geometry": { "type": "Point", "coordinates": [ -88.606603999988877, 44.760661000122191 ] } },
{ "type": "Feature", "properties": { "OBJECTID": 285, "FACILITY_INTERNAL_ID": 593698, "ADDRESS": "2380 Marshall St", "ADDRESS_2": null, "CITY": "Wausau", "STATE": "WI", "ZIP": 54403, "ZIP_4": null, "LAT": 44.932849, "LON": -89.631763, "STATE_FIPS": 55, "COUNTY": "MARATHON COUNTY", "COUNTY_FIPS": 55073, "TYPE_DESC": "HOSPITAL SATELLITE LOCATIONS", "SUB_TYPE_DESC": "HOSPITAL SATELLITE LOCATIONS", "WI_LICENSE_NUM": 326, "ASPEN_FACILITY_ID": "HSPLPSY15", "MEDICARE_ID": null, "ALIS_NAME": "NORTH CENTRAL HEALTH CARE", "WITRAC_NAME": "North Central Healthcare", "NAME": "North Central Healthcare", "TYPE_CODE": "HS", "FACILITY_TYPE_CODE": "HS1", "URL": null }, "geometry": { "type": "Point", "coordinates": [ -89.631763000328945, 44.93284899881251 ] } },
{ "type": "Feature", "properties": { "OBJECTID": 286, "FACILITY_INTERNAL_ID": 596078, "ADDRESS": "4805 S Moorland Rd", "ADDRESS_2": null, "CITY": "New Berlin", "STATE": "WI", "ZIP": 53151, "ZIP_4": 7401, "LAT": 42.958212, "LON": -88.10918, "STATE_FIPS": 55, "COUNTY": "Waukesha", "COUNTY_FIPS": 55133, "TYPE_DESC": "HOSPITAL", "SUB_TYPE_DESC": "SHORT TERM", "WI_LICENSE_NUM": 327, "ASPEN_FACILITY_ID": "HSPLACU224", "MEDICARE_ID": "520213", "ALIS_NAME": "FROEDTERT COMMUNITY HOSPITAL", "WITRAC_NAME": "Froedtert Community Hospital New Berlin", "NAME": "Froedtert Community Hospital - New Berlin", "TYPE_CODE": "01", "FACILITY_TYPE_CODE": "011", "URL": null }, "geometry": { "type": "Point", "coordinates": [ -88.109179999884233, 42.95821199888416 ] } },
{ "type": "Feature", "properties": { "OBJECTID": 287, "FACILITY_INTERNAL_ID": 596553, "ADDRESS": "209 Pewaukee Rd", "ADDRESS_2": null, "CITY": "Pewaukee", "STATE": "WI", "ZIP": 53072, "ZIP_4": null, "LAT": 43.08427657, "LON": -88.2257, "STATE_FIPS": 55, "COUNTY": "WAUKESHA COUNTY", "COUNTY_FIPS": 55133, "TYPE_DESC": "HOSPITAL SATELLITE LOCATIONS", "SUB_TYPE_DESC": "HOSPITAL SATELLITE LOCATIONS", "WI_LICENSE_NUM": 328, "ASPEN_FACILITY_ID": "HSPLACU225", "MEDICARE_ID": null, "ALIS_NAME": "FROEDTERT COMMUNITY HOSPITAL", "WITRAC_NAME": "Froedtert Community Hospital Pewaukee", "NAME": "Froedtert Community Hospital - Pewaukee", "TYPE_CODE": "HS", "FACILITY_TYPE_CODE": "HS1", "URL": null }, "geometry": { "type": "Point", "coordinates": [ -88.225700000178577, 43.084276568956973 ] } },
{ "type": "Feature", "properties": { "OBJECTID": 289, "FACILITY_INTERNAL_ID": 604132, "ADDRESS": "N88w14275 Main Street, Suite 100", "ADDRESS_2": null, "CITY": "Menomonee Falls", "STATE": "WI", "ZIP": 53051, "ZIP_4": 2315, "LAT": 43.17781264, "LON": -88.08770813, "STATE_FIPS": 55, "COUNTY": "WAUKESHA COUNTY", "COUNTY_FIPS": 55133, "TYPE_DESC": "HOSPITAL", "SUB_TYPE_DESC": "SHORT TERM", "WI_LICENSE_NUM": 331, "ASPEN_FACILITY_ID": "HSPLACU226", "MEDICARE_ID": null, "ALIS_NAME": "ASCENSION WISCONSIN HOSP MENOMONEE FALLS CAMPUS", "WITRAC_NAME": "Ascension WI Hospital- Menomonee Falls", "NAME": "Ascension Wisconsin Hospital- Menomonee Falls", "TYPE_CODE": "01", "FACILITY_TYPE_CODE": "011", "URL": null }, "geometry": { "type": "Point", "coordinates": [ -88.087708130196674, 43.177812639027536 ] } },
{ "type": "Feature", "properties": { "OBJECTID": 290, "FACILITY_INTERNAL_ID": 604500, "ADDRESS": "4935 S 76th St Suite 100", "ADDRESS_2": null, "CITY": "Greenfield", "STATE": "WI", "ZIP": 53220, "ZIP_4": 4305, "LAT": 42.955147, "LON": -88.009057, "STATE_FIPS": 55, "COUNTY": "Milwaukee", "COUNTY_FIPS": 55079, "TYPE_DESC": "HOSPITAL SATELLITE LOCATIONS", "SUB_TYPE_DESC": "HOSPITAL SATELLITE LOCATIONS", "WI_LICENSE_NUM": 332, "ASPEN_FACILITY_ID": "HSPSAT021", "MEDICARE_ID": null, "ALIS_NAME": "ASCENSION WISCONSIN HOSPITAL GREENFIELD CAMPUS", "WITRAC_NAME": "Ascension WI Hospital- Greenfield", "NAME": "Ascension Wisconsin Hospital- Greenfield", "TYPE_CODE": "HS", "FACILITY_TYPE_CODE": "HS1", "URL": null }, "geometry": { "type": "Point", "coordinates": [ -88.009056999674883, 42.955146998818165 ] } },
{ "type": "Feature", "properties": { "OBJECTID": 291, "FACILITY_INTERNAL_ID": 605052, "ADDRESS": "2325 Fox Run Blvd, Suite 100", "ADDRESS_2": null, "CITY": "Waukesha", "STATE": "WI", "ZIP": 53188, "ZIP_4": 6602, "LAT": 42.9892724, "LON": -88.26813457, "STATE_FIPS": 55, "COUNTY": "WAUKESHA COUNTY", "COUNTY_FIPS": 55133, "TYPE_DESC": "HOSPITAL SATELLITE LOCATIONS", "SUB_TYPE_DESC": "HOSPITAL SATELLITE LOCATIONS", "WI_LICENSE_NUM": 333, "ASPEN_FACILITY_ID": "HSPSAT023", "MEDICARE_ID": null, "ALIS_NAME": "ASCENSION WISCONSIN HOSPITAL WAUKESHA CAMPUS", "WITRAC_NAME": "Ascension WI Hospital- Waukesha", "NAME": "Ascension WI Hospital- Waukesha", "TYPE_CODE": "HS", "FACILITY_TYPE_CODE": "HS1", "URL": null }, "geometry": { "type": "Point", "coordinates": [ -88.26813456995913, 42.989272398961269 ] } },
{ "type": "Feature", "properties": { "OBJECTID": 292, "FACILITY_INTERNAL_ID": 606896, "ADDRESS": "13250 Washington Ave", "ADDRESS_2": null, "CITY": "Mount Pleasant", "STATE": "WI", "ZIP": 53177, "ZIP_4": 1516, "LAT": 42.724425, "LON": -87.949306, "STATE_FIPS": 55, "COUNTY": "RACINE COUNTY", "COUNTY_FIPS": 55101, "TYPE_DESC": "HOSPITAL SATELLITE LOCATIONS", "SUB_TYPE_DESC": "HOSPITAL SATELLITE LOCATIONS", "WI_LICENSE_NUM": 335, "ASPEN_FACILITY_ID": "HSPSAT022", "MEDICARE_ID": null, "ALIS_NAME": "AURORA MEDICAL CENTER MOUNT PLEASANT", "WITRAC_NAME": "Aurora Medical Center - Mount Pleasant", "NAME": "Aurora Medical Center - Mount Pleasant", "TYPE_CODE": "HS", "FACILITY_TYPE_CODE": "HS1", "URL": null }, "geometry": { "type": "Point", "coordinates": [ -87.949305999624499, 42.724424999106645 ] } },
{ "type": "Feature", "properties": { "OBJECTID": 293, "FACILITY_INTERNAL_ID": 606935, "ADDRESS": "7901 S 6th St", "ADDRESS_2": null, "CITY": "Oak Creek", "STATE": "WI", "ZIP": 53154, "ZIP_4": 2010, "LAT": 42.90057, "LON": -87.920792, "STATE_FIPS": 55, "COUNTY": "Milwaukee", "COUNTY_FIPS": 55079, "TYPE_DESC": "HOSPITAL SATELLITE LOCATIONS", "SUB_TYPE_DESC": "HOSPITAL SATELLITE LOCATIONS", "WI_LICENSE_NUM": 336, "ASPEN_FACILITY_ID": "HSPSAT024", "MEDICARE_ID": null, "ALIS_NAME": "FROEDTERT COMMUNITY HOSPITAL", "WITRAC_NAME": "Froedtert Community Hospital Oak Creek", "NAME": "Froedtert Community Hospital - Oak Creek", "TYPE_CODE": "HS", "FACILITY_TYPE_CODE": "HS1", "URL": null }, "geometry": { "type": "Point", "coordinates": [ -87.920792000167765, 42.900569998944327 ] } },
{ "type": "Feature", "properties": { "OBJECTID": 294, "FACILITY_INTERNAL_ID": 607105, "ADDRESS": "240 Maple Ave", "ADDRESS_2": null, "CITY": "Mukwonago", "STATE": "WI", "ZIP": 53149, "ZIP_4": 8475, "LAT": 42.849726, "LON": -88.311991, "STATE_FIPS": 55, "COUNTY": "Waukesha", "COUNTY_FIPS": 55133, "TYPE_DESC": "HOSPITAL SATELLITE LOCATIONS", "SUB_TYPE_DESC": "HOSPITAL SATELLITE LOCATIONS", "WI_LICENSE_NUM": 337, "ASPEN_FACILITY_ID": "HSPSAT025", "MEDICARE_ID": null, "ALIS_NAME": "PROHEALTH WAUKESHA MEMORIAL HOSP-MUKWONAGO CAMPUS", "WITRAC_NAME": "Pro Health Care Mukwonagoback to view close", "NAME": "ProHealth Waukesha Memorial Hospital-Mukwonago", "TYPE_CODE": "HS", "FACILITY_TYPE_CODE": "HS1", "URL": null }, "geometry": { "type": "Point", "coordinates": [ -88.311991000357921, 42.849725999301448 ] } },
{ "type": "Feature", "properties": { "OBJECTID": 295, "FACILITY_INTERNAL_ID": 607276, "ADDRESS": "11421 N Port Washington Rd", "ADDRESS_2": null, "CITY": "Mequon", "STATE": "WI", "ZIP": 53092, "ZIP_4": 3413, "LAT": 43.2259262, "LON": -87.9246132, "STATE_FIPS": 55, "COUNTY": "Ozaukee", "COUNTY_FIPS": 55089, "TYPE_DESC": "HOSPITAL SATELLITE LOCATIONS", "SUB_TYPE_DESC": "HOSPITAL SATELLITE LOCATIONS", "WI_LICENSE_NUM": 338, "ASPEN_FACILITY_ID": "HSPSAT026", "MEDICARE_ID": "<Null>", "ALIS_NAME": "FROEDTERT COMMUNITY HOSPITAL", "WITRAC_NAME": "Froedtert Community Hospital Mequon", "NAME": "Froedtert Community Hospital - Mequon", "TYPE_CODE": "HS", "FACILITY_TYPE_CODE": "HS1", "URL": "https://www.froedtert.com/locations/hospital/froedtert-community-hospital-mequon" }, "geometry": { "type": "Point", "coordinates": [ -87.924613199824464, 43.225926200196582 ] } },
{ "type": "Feature", "properties": { "OBJECTID": 296, "FACILITY_INTERNAL_ID": 609422, "ADDRESS": "4100 State Highway 66", "ADDRESS_2": null, "CITY": "Stevens Point", "STATE": "WI", "ZIP": 54482, "ZIP_4": 8410, "LAT": 44.544032, "LON": -89.547501, "STATE_FIPS": 55, "COUNTY": "Portage", "COUNTY_FIPS": 55097, "TYPE_DESC": "HOSPITAL", "SUB_TYPE_DESC": "SHORT TERM", "WI_LICENSE_NUM": 340, "ASPEN_FACILITY_ID": "HSPLACU227", "MEDICARE_ID": "<Null>", "ALIS_NAME": "MARSHFIELD MEDICAL CENTER - RIVER REGION", "WITRAC_NAME": "Marshfield Medical Center - River Region", "NAME": "Marshfield Medical Center - River Region Stevens Point Campus", "TYPE_CODE": "1", "FACILITY_TYPE_CODE": "11", "URL": "https://www.marshfieldclinic.org/locations/centers/stevens%20point%20center" }, "geometry": { "type": "Point", "coordinates": [ -89.547500999729095, 44.54403200015259 ] } },
{ "type": "Feature", "properties": { "OBJECTID": 298, "FACILITY_INTERNAL_ID": 611921, "ADDRESS": "2400 E Capitol Dr", "ADDRESS_2": null, "CITY": "Appleton", "STATE": "WI", "ZIP": 54911, "ZIP_4": 8728, "LAT": 44.296177, "LON": -88.36628, "STATE_FIPS": 55, "COUNTY": "Outagamie", "COUNTY_FIPS": 55087, "TYPE_DESC": "HOSPITAL SATELLITE LOCATIONS", "SUB_TYPE_DESC": "HOSPITAL SATELLITE LOCATIONS", "WI_LICENSE_NUM": 342, "ASPEN_FACILITY_ID": "HSPSAT027", "MEDICARE_ID": null, "ALIS_NAME": "THEDACARE MEDICAL CENTER-ORTHOPEDIC SPINE AND PAIN", "WITRAC_NAME": "ThedaCare Medical Center-Orthopedic, Spine and Pain", "NAME": "ThedaCare Medical Center-Orthopedic, Spine and Pain", "TYPE_CODE": "HS", "FACILITY_TYPE_CODE": "HS1", "URL": "https://directory.thedacare.org/location/thedacare-medical-center-orthopedic-spine-and-pain" }, "geometry": { "type": "Point", "coordinates": [ -88.366280000037392, 44.296177000023491 ] } },
{ "type": "Feature", "properties": { "OBJECTID": 299, "FACILITY_INTERNAL_ID": 612366, "ADDRESS": "10000 W Bluemound Rd", "ADDRESS_2": null, "CITY": "Wauwatosa", "STATE": "WI", "ZIP": 53226, "ZIP_4": 4321, "LAT": 43.036791, "LON": -88.037312, "STATE_FIPS": 55, "COUNTY": "Milwaukee", "COUNTY_FIPS": 55079, "TYPE_DESC": "HOSPITAL SATELLITE LOCATIONS", "SUB_TYPE_DESC": "HOSPITAL SATELLITE LOCATIONS", "WI_LICENSE_NUM": 343, "ASPEN_FACILITY_ID": "HSPLRHB004", "MEDICARE_ID": null, "ALIS_NAME": "FROEDTERT BLUEMOUND REHABILITATION HOSPITAL", "WITRAC_NAME": "Froedtert Bluemound Rehabilitation Hospital", "NAME": "Froedtert Bluemound Rehabilitation Hospital", "TYPE_CODE": "HS", "FACILITY_TYPE_CODE": "HS1", "URL": "https://www.froedtert.com/locations/hospital/froedtert-bluemound-rehabilitation-hospital" }, "geometry": { "type": "Point", "coordinates": [ -88.03731199956384, 43.036791000326126 ] } }
]
}
